[
  {
    "latitude": 46.16188305,
    "longitude": -113.14097255,
    "title": "002f514b-51b7-477e-83d4-a6822ae89b18"
  },
  {
    "latitude": 41.112242537551644,
    "longitude": -94.72857101349766,
    "title": "0fa5121e-00f6-44ab-96e3-539164a61e4a"
  },
  {
    "latitude": 32.28788785696736,
    "longitude": -106.77790567357589,
    "title": "08bc3844-63b6-405d-a6b5-72cf4d7c53c9"
  },
  {
    "latitude": 39.332,
    "longitude": -105.256,
    "title": "bc1db6cd-8a51-4ceb-ac3e-59b7c33c20c1"
  },
  {
    "latitude": 27.399191827741248,
    "longitude": -81.21191406143784,
    "title": "03030471-e5a4-42d0-aa77-b48d39d9a72f"
  },
  {
    "latitude": 35.35191635,
    "longitude": -111.73705841,
    "title": "9efc4ec4-b753-4d5a-90cb-1cf9d0858b56"
  },
  {
    "latitude": 40.4441941492495,
    "longitude": -104.93022236464704,
    "title": "64806c96-0565-4cb1-843f-169d5c998f4e"
  },
  {
    "latitude": 38.05071719680909,
    "longitude": -79.76677084638322,
    "title": "142a4206-c2f8-45d4-aed5-8f523d465a8c"
  },
  {
    "latitude": 39.15481010802509,
    "longitude": -107.46083887162226,
    "title": "a75f7467-b7f3-427d-afc3-3083669874e4"
  },
  {
    "latitude": 36.110899,
    "longitude": -120.565098,
    "title": "bffc95ee-0ee0-45fe-a9e6-2adca13318f5"
  },
  {
    "latitude": 42.23421333333334,
    "longitude": -122.76713166666666,
    "title": "c8641622-fac5-4637-848c-41d919b5951e"
  },
  {
    "latitude": 38.65802551761292,
    "longitude": -121.4808514929119,
    "title": "999781d2-5df9-4dbc-b410-cd139133349d"
  },
  {
    "latitude": 61.23275204981772,
    "longitude": -149.56843879810208,
    "title": "7d47df8f-cc31-4b06-8672-c6b898e8353e"
  },
  {
    "latitude": 34.786833,
    "longitude": -120.052,
    "title": "6db18e5e-d71d-4064-9ec4-3246c9d74150"
  },
  {
    "latitude": 31.759026405500233,
    "longitude": -110.80123362701053,
    "title": "35ded560-4946-435f-b8a3-27b1afe49272"
  },
  {
    "latitude": 47.6019814775122,
    "longitude": -113.7694328605049,
    "title": "4d86fa1f-e04c-41fc-be9a-8cfcb218de72"
  },
  {
    "latitude": 32.856263405775636,
    "longitude": -116.90327262085201,
    "title": "01255ee6-f43a-470d-af97-ee79c86c2039"
  },
  {
    "latitude": 34.23565596696763,
    "longitude": -101.3709515698604,
    "title": "8ed69edf-6de0-45ac-aaa2-3c342d44dd4d"
  },
  {
    "latitude": 37.04323118273765,
    "longitude": -121.83249327781323,
    "title": "4936bd23-9036-40d8-aeaa-fed1193bc7a3"
  },
  {
    "latitude": 44.730658720358356,
    "longitude": -116.43245802309114,
    "title": "ec56805d-cd89-4a13-ad38-d731dbcaccdc"
  },
  {
    "latitude": 36.98833107698174,
    "longitude": -121.97279012173696,
    "title": "e7654a03-8e27-4c02-bb16-cfac58eef95b"
  },
  {
    "latitude": 41.63221675,
    "longitude": -87.08810319,
    "title": "1f2a2945-f606-4c7d-ac96-edad1cb069e2"
  },
  {
    "latitude": 38.222537079804106,
    "longitude": -122.54383446902631,
    "title": "2ced5f2f-d0e2-41b8-92d5-007c98a5e933"
  },
  {
    "latitude": 38.60414724707958,
    "longitude": -112.91923006030414,
    "title": "365f2e8d-2e5e-409e-bb4f-2e5a4ebfc95d"
  },
  {
    "latitude": 46.92610478,
    "longitude": -114.09257695,
    "title": "0756bd70-2768-4718-b406-1c759f743179"
  },
  {
    "latitude": 35.4288911393499,
    "longitude": -118.63531268104563,
    "title": "86fabb20-bc22-4e6a-8d18-0816c249ff69"
  },
  {
    "latitude": 32.31720442886688,
    "longitude": -110.85010659891259,
    "title": "3c21bf6c-9969-4cb2-9dd1-5c512fc795ee"
  },
  {
    "latitude": 33.3779163379533,
    "longitude": -108.86973571042425,
    "title": "9a540bd5-a6dd-44b2-8dc6-af0354042b17"
  },
  {
    "latitude": 27.85246226333857,
    "longitude": -81.63878575575062,
    "title": "b0881699-9442-4068-aba7-d0e2ef6cc83c"
  },
  {
    "latitude": 33.428133,
    "longitude": -105.799833,
    "title": "c174e145-e74a-4262-8cc5-7ca150945bcd"
  },
  {
    "latitude": 35.77065764708066,
    "longitude": -106.40491948579769,
    "title": "0bb621df-fc53-4c0a-bb15-6434ed1918e0"
  },
  {
    "latitude": 36.6561803816367,
    "longitude": -119.53676905710124,
    "title": "00e6e678-4844-4621-bfa6-be71e738592e"
  },
  {
    "latitude": 32.41694886973671,
    "longitude": -110.75264118808342,
    "title": "32464171-958c-49d7-8df3-c04f657583f2"
  },
  {
    "latitude": 31.320416747990244,
    "longitude": -86.44973294144404,
    "title": "27e13b0d-a801-4588-941f-3a10abe8e181"
  },
  {
    "latitude": 38.86046345280657,
    "longitude": -122.6256485862745,
    "title": "a4a77bfc-c117-42c9-a5ab-23c107bf2201"
  },
  {
    "latitude": 31.63959878152389,
    "longitude": -109.56976545471326,
    "title": "c0fdde3d-6494-40a7-bfb5-25a66459d367"
  },
  {
    "latitude": 35.29479925007733,
    "longitude": -85.33580586253255,
    "title": "6f12b392-dc51-4fa6-9571-25fd4ceac498"
  },
  {
    "latitude": 34.25192834,
    "longitude": -111.3432496,
    "title": "74e623e7-aa23-45ed-b639-cbc09a087465"
  },
  {
    "latitude": 47.04866652,
    "longitude": -114.26881969,
    "title": "53b8883e-0518-486b-8e39-6e117ac0517c"
  },
  {
    "latitude": 36.67318297325297,
    "longitude": -114.49317083012683,
    "title": "64e89e52-fb19-42dd-b51b-296778a3fb30"
  },
  {
    "latitude": 33.47090750206315,
    "longitude": -97.34537954677037,
    "title": "96179cd3-d907-462c-ae47-aa6a339f0118"
  },
  {
    "latitude": 33.10139989,
    "longitude": -106.0462559,
    "title": "3443a46f-0a95-4b81-a2e1-df5643a68049"
  },
  {
    "latitude": 35.083562965706065,
    "longitude": -106.6533096636492,
    "title": "525a1444-6623-4552-9311-22e03676e355"
  },
  {
    "latitude": 45.88896598782392,
    "longitude": -114.29310641006174,
    "title": "30ea055d-d6de-41df-b4da-58eefb9c9644"
  },
  {
    "latitude": 38.40654057980451,
    "longitude": -101.44579841948136,
    "title": "df628215-0a1d-4141-88ae-36bb38d0d594"
  },
  {
    "latitude": 33.428133,
    "longitude": -105.799833,
    "title": "be400813-073a-4348-a289-e17bb5908117"
  },
  {
    "latitude": 42.17119947,
    "longitude": -120.34599848,
    "title": "c32c57d8-b350-4807-bc2f-a5156d894391"
  },
  {
    "latitude": 33.97149346479127,
    "longitude": -99.91628085741884,
    "title": "1b4dd627-30f2-4518-a5ea-c8ea9c03e8f4"
  },
  {
    "latitude": 47.662738238367865,
    "longitude": -117.4167372703714,
    "title": "64011855-5c80-4867-afdd-a6b52fca39a5"
  },
  {
    "latitude": 35.82558333,
    "longitude": -110.39411111,
    "title": "7953b907-e93f-4019-bd11-cbae357bf5d0"
  },
  {
    "latitude": 31.372070184648972,
    "longitude": -109.57895459751471,
    "title": "8e619614-1013-4ad9-a9f2-e7a74aaba5d8"
  },
  {
    "latitude": 44.32033744,
    "longitude": -121.22833861,
    "title": "7b8a647e-5919-43fa-8e72-28c33ae9afe1"
  },
  {
    "latitude": 39.35885514658801,
    "longitude": -111.21476047156736,
    "title": "ad072a23-27af-4d6c-a3fa-dc7bffb2e98a"
  },
  {
    "latitude": 34.75191312080915,
    "longitude": -95.04519269138025,
    "title": "1e7613f1-a20c-4626-be7e-21b86e55ebe7"
  },
  {
    "latitude": 29.76070478206674,
    "longitude": -95.34740182274535,
    "title": "5289623a-4441-4b42-be7e-0cd4b14e4b4c"
  },
  {
    "latitude": 48.184131058018224,
    "longitude": -116.89906924556723,
    "title": "62a5adf7-c7c1-4bfa-9038-a14cefb1fbbb"
  },
  {
    "latitude": 43.342906010812825,
    "longitude": -91.52451664203608,
    "title": "978e6b97-00dd-4884-abe9-86eac983bb72"
  },
  {
    "latitude": 34.62507651656365,
    "longitude": -112.42035465325453,
    "title": "b4443c77-efe9-4d56-82d0-21763a822803"
  },
  {
    "latitude": 39.82363722,
    "longitude": -105.40598856,
    "title": "f79b5e2d-ed9a-4cab-86b5-ebe9dc0cbd7c"
  },
  {
    "latitude": 43.60838826167573,
    "longitude": -111.10192847661028,
    "title": "751af043-2f53-4c4a-9941-a474e5bc2552"
  },
  {
    "latitude": 43.212711563406195,
    "longitude": -87.97003437167423,
    "title": "34b57225-4dfe-4f67-96c9-22c58fd7963f"
  },
  {
    "latitude": 43.550054176825725,
    "longitude": -116.13172598273998,
    "title": "17b0a790-de08-46ef-b232-6365fbd1275b"
  },
  {
    "latitude": 33.3183293,
    "longitude": -105.6322795,
    "title": "98427ae4-d975-4dc6-9957-1f19a8361cf8"
  },
  {
    "latitude": 46.468276630312275,
    "longitude": -113.72118389933162,
    "title": "821d3369-b60f-4c6b-a2c8-19067b1785c2"
  },
  {
    "latitude": 38.39122265753735,
    "longitude": -122.60026314526134,
    "title": "4298d105-e3b3-43f5-8af2-c9ef161b4a25"
  },
  {
    "latitude": 37.98436490021554,
    "longitude": -101.03851522097453,
    "title": "745e1580-484d-41b2-b975-b36087b84864"
  },
  {
    "latitude": 44.3824,
    "longitude": -83.6315,
    "title": "fef1f17a-0719-447f-a45e-2a9fcf8409ad"
  },
  {
    "latitude": 39.66156777909254,
    "longitude": -120.44832079927028,
    "title": "a264ff3b-21c3-4723-bd9a-7be6b2f0d9e1"
  },
  {
    "latitude": 35.96288520780595,
    "longitude": -119.64083061920387,
    "title": "3a059094-5869-474d-92ab-a15012c13c0b"
  },
  {
    "latitude": 41.72677355,
    "longitude": -122.53073273,
    "title": "c9d45b2e-a656-4849-95c0-6de72d35cf78"
  },
  {
    "latitude": 31.51639515113835,
    "longitude": -88.91673241624291,
    "title": "df3edd06-0ce1-4ffd-82e2-536b18947580"
  },
  {
    "latitude": 40.09659571,
    "longitude": -105.24513136,
    "title": "42699119-f4dd-455f-b5cf-a5881bd83257"
  },
  {
    "latitude": 33.516742984365955,
    "longitude": -97.65018744415372,
    "title": "0a40b299-5517-4f3e-9177-19841f4f8e1f"
  },
  {
    "latitude": 43.0292857227135,
    "longitude": -87.91242439368094,
    "title": "6a8c6c9d-5ed2-4747-914c-8c146d8d77fb"
  },
  {
    "latitude": 39.31321014288882,
    "longitude": -106.63484303411146,
    "title": "4f4d39e4-405c-43b5-a830-1e5836ba81d9"
  },
  {
    "latitude": 35.569294,
    "longitude": -120.700295,
    "title": "1f449fd3-51fa-4423-aca7-022c893362a6"
  },
  {
    "latitude": 33.428133,
    "longitude": -105.799833,
    "title": "20d503d1-b0dc-42b5-b519-36ecc833dfea"
  },
  {
    "latitude": 32.85031780854938,
    "longitude": -111.27961869610701,
    "title": "5e10382a-fe25-4537-97a7-bc1ee2155c98"
  },
  {
    "latitude": 36.590589,
    "longitude": -119.568213,
    "title": "b72fc137-d819-4705-bd65-e039fe8f1753"
  },
  {
    "latitude": 38.48244129,
    "longitude": -109.43581203,
    "title": "a86621e8-033e-47d0-9fff-460aa32dc084"
  },
  {
    "latitude": 64.84866886889043,
    "longitude": -147.83596441046234,
    "title": "fa61de52-e9d0-41e7-b940-510437460aff"
  },
  {
    "latitude": 44.94344989152549,
    "longitude": -123.01652093806233,
    "title": "1cf2635c-1baf-4095-a8b8-83c44fa7f74a"
  },
  {
    "latitude": 44.26665754213728,
    "longitude": -121.25229881907569,
    "title": "a8e54df1-89dc-4ddd-bf6e-f418c80ac822"
  },
  {
    "latitude": 34.41611010846545,
    "longitude": -118.13686293670666,
    "title": "09238ac4-ca05-4087-822f-3d6f0f6ebd96"
  },
  {
    "latitude": 43.429260000000006,
    "longitude": -123.29554666666667,
    "title": "0320d4b4-122f-4d3f-ae1d-3462e29f1bbb"
  },
  {
    "latitude": 31.535021,
    "longitude": -94.929385,
    "title": "157fe36c-e4ef-47aa-a51a-f041f1f945cb"
  },
  {
    "latitude": 45.15772201058207,
    "longitude": -112.66872689011421,
    "title": "3c553959-8f38-46eb-bf64-0b8cf5284b6b"
  },
  {
    "latitude": 35.137428110097574,
    "longitude": -90.16029322382917,
    "title": "f40705ce-9794-4adb-ba66-275e0104bc88"
  },
  {
    "latitude": 36.52624894589054,
    "longitude": -120.96555584745914,
    "title": "aec1e343-a360-4291-9065-3be5d0fbc66a"
  },
  {
    "latitude": 39.81226092393619,
    "longitude": -123.2649742041429,
    "title": "a180f036-2748-47d6-95ee-52f222546bdc"
  },
  {
    "latitude": 30.305572509765625,
    "longitude": -84.42367000738842,
    "title": "a688eaef-aa81-4bc5-99f3-8be50c1ece19"
  },
  {
    "latitude": 35.174154776255925,
    "longitude": -111.64851805123811,
    "title": "dbc4cdb8-123f-43e2-bb3b-817050cc5c8c"
  },
  {
    "latitude": 38.58825075454631,
    "longitude": -100.74279293526104,
    "title": "912dea58-6ae2-4a45-a216-c6653c78d1f8"
  },
  {
    "latitude": 40.97659598449359,
    "longitude": -117.71352616797327,
    "title": "23de764b-d6d5-405c-ba8f-cfe20e7793dd"
  },
  {
    "latitude": 45.19068523455273,
    "longitude": -109.33602871517925,
    "title": "4b59ab6d-b7c2-4899-b9b1-57874b85fea0"
  },
  {
    "latitude": 33.428133,
    "longitude": -105.799833,
    "title": "efc5b2bb-ef90-49bc-bdc8-599cbb35ecdf"
  },
  {
    "latitude": 42.217276878694506,
    "longitude": -113.95589232455376,
    "title": "9ce2084e-104e-4281-aa5c-0e2b7e2a79e8"
  },
  {
    "latitude": 35.79244069073365,
    "longitude": -119.36571818308599,
    "title": "c46411bf-8711-46c2-95fc-ef9a0c284edf"
  },
  {
    "latitude": 44.75510222152077,
    "longitude": -122.23298136223003,
    "title": "8d0e41da-be43-42f6-a2d3-c4927d0d63f3"
  },
  {
    "latitude": 34.18026444820645,
    "longitude": -117.80367787087441,
    "title": "c8c9b7da-64f6-4540-bc44-04a56f63ec47"
  },
  {
    "latitude": 33.72717610008309,
    "longitude": -116.98313188783918,
    "title": "e0c11b57-901f-4b3f-ba8d-a8732a6ccafc"
  },
  {
    "latitude": 35.28767570665382,
    "longitude": -99.94437741006408,
    "title": "b2afa640-2c00-48a8-a486-89e45962a614"
  },
  {
    "latitude": 33.2072479749993,
    "longitude": -94.54111890028047,
    "title": "272b1b30-4206-486b-8e0f-b0a774c32a34"
  },
  {
    "latitude": 33.168992379571435,
    "longitude": -112.14429610868933,
    "title": "1b0e6155-4135-4fc9-bd5a-fe799f6b4d5e"
  },
  {
    "latitude": 44.53894198416072,
    "longitude": -121.36588493758998,
    "title": "343c04e0-cce5-4869-9cff-ffb76cf66c1b"
  },
  {
    "latitude": 39.96328821250893,
    "longitude": -74.39196043861213,
    "title": "138254d4-7a3d-4e1f-9d96-9d713ea66421"
  },
  {
    "latitude": 39.963305477511135,
    "longitude": -74.39159365710911,
    "title": "e98653f3-4857-4810-81a0-6d28f886fe4b"
  },
  {
    "latitude": 38.550777883110754,
    "longitude": -121.59221718873265,
    "title": "77b480c8-0747-49b1-9bb6-eb4938504c89"
  },
  {
    "latitude": 36.98833503828103,
    "longitude": -121.97250287243553,
    "title": "82c45ff7-1e94-4893-a66c-529eefdae255"
  },
  {
    "latitude": 36.483552977088465,
    "longitude": -119.82567424481687,
    "title": "8b7a3192-6297-4123-a6bd-9839cb4a2213"
  },
  {
    "latitude": 40.55932276708508,
    "longitude": -105.08584081494784,
    "title": "2eb26395-f3dc-47d7-932f-44d6ac8f822a"
  },
  {
    "latitude": 40.84241804244378,
    "longitude": -105.5673281670694,
    "title": "8ad878f5-f637-4598-813f-502d9385750a"
  },
  {
    "latitude": 40.157527745054026,
    "longitude": -105.65609500740112,
    "title": "bbd8c913-dd76-44aa-a3be-8a62b6ffdc23"
  },
  {
    "latitude": 40.55932276708508,
    "longitude": -105.08584081494784,
    "title": "cd245ab8-e1d3-4fdf-88af-bf40d597201a"
  },
  {
    "latitude": 40.55932276708508,
    "longitude": -105.08584081494784,
    "title": "8ba9eb79-a238-4ca5-bdeb-13d59550cbe8"
  },
  {
    "latitude": 46.865,
    "longitude": -114.03933333333333,
    "title": "2d5ea503-5e0d-47b0-9a4c-276c33260075"
  },
  {
    "latitude": 33.428133,
    "longitude": -105.799833,
    "title": "8435833e-c663-4ab7-932b-d5f060ef7b4e"
  },
  {
    "latitude": 41.648150682488335,
    "longitude": -91.53977983639719,
    "title": "5208e228-d790-4e8a-add4-3d29b7ea7866"
  },
  {
    "latitude": 48.26269238658537,
    "longitude": -121.61057997415678,
    "title": "201a0bea-cabd-4c19-b75e-a4b518e365de"
  },
  {
    "latitude": 38.7349504,
    "longitude": -120.85123129,
    "title": "a3f84a3e-3f1e-437e-8e75-a6a1ed51c86e"
  },
  {
    "latitude": 34.336951,
    "longitude": -117.252712,
    "title": "a6d1661d-e7ab-46f4-97ea-c4e00dd95919"
  },
  {
    "latitude": 46.79364,
    "longitude": -112.38285166666668,
    "title": "18e248e6-e821-472a-a9ce-e3afa437e352"
  },
  {
    "latitude": 39.90768918,
    "longitude": -120.74236959,
    "title": "645be3d1-bb27-4db1-8eff-d1b337171ad9"
  },
  {
    "latitude": 46.86542821586771,
    "longitude": -113.99195705551094,
    "title": "01f420ed-f20d-422a-9919-ce4d9bf3c6e0"
  },
  {
    "latitude": 35.080642540386265,
    "longitude": -88.08841584149405,
    "title": "d5428a3a-d912-499f-b989-2a9bb438ded0"
  },
  {
    "latitude": 35.53726202345969,
    "longitude": -82.9384160601375,
    "title": "fcc5c11f-9ce7-4986-9356-19ac75b269b4"
  },
  {
    "latitude": 35.53716684694929,
    "longitude": -82.93852334849811,
    "title": "e5178831-fc85-4baa-849f-7f62aeaa265b"
  },
  {
    "latitude": 29.760702747048416,
    "longitude": -95.34739937545025,
    "title": "1e07398b-f74a-4d21-ac0c-14fe478c479a"
  },
  {
    "latitude": 46.88760137608665,
    "longitude": -114.29667326310303,
    "title": "018c754a-3957-44b9-97cc-9007500aae06"
  },
  {
    "latitude": 36.229601113093985,
    "longitude": -106.81174308220936,
    "title": "6a6bba27-9808-4a8e-8976-c341159281b8"
  },
  {
    "latitude": 35.17454275,
    "longitude": -111.6798457,
    "title": "69896586-6611-46bd-b246-ce4484b75cfc"
  },
  {
    "latitude": 34.80285,
    "longitude": -118.8776,
    "title": "3744afa3-78b3-455b-a6ad-1a3e6dd50b8b"
  },
  {
    "latitude": 46.85409910981278,
    "longitude": -114.02473767298643,
    "title": "fb806fe9-aead-4914-8ccc-3eb65d1d67a3"
  },
  {
    "latitude": 40.19697756914317,
    "longitude": -105.51220669318315,
    "title": "4299746d-88d5-4891-8fdb-957636606a72"
  },
  {
    "latitude": 29.277059,
    "longitude": -100.846231,
    "title": "836ecf13-b7f2-4bc3-8ecc-94ee96a938a5"
  },
  {
    "latitude": 43.38261617019188,
    "longitude": -113.00000676929146,
    "title": "3bf40e82-e83d-4b91-8f68-73debb1a0086"
  },
  {
    "latitude": 29.57627703726902,
    "longitude": -81.78604665174717,
    "title": "73f770da-0b0c-45fa-8521-6f24c8407e36"
  },
  {
    "latitude": 35.17443262,
    "longitude": -111.67988392,
    "title": "20b7176f-422c-4c61-8b7c-afc43c93e3d7"
  },
  {
    "latitude": 38.27258830136341,
    "longitude": -98.79603445430023,
    "title": "6f9d58ae-bd87-4ab7-9398-cf7d0358b333"
  },
  {
    "latitude": 34.57616128017446,
    "longitude": -118.14624771944966,
    "title": "3b3a7ef2-9d99-4448-93b1-679b25159652"
  },
  {
    "latitude": 37.11864666666667,
    "longitude": -104.522295,
    "title": "866cb6e7-80f6-4feb-a573-8f56a9e718dc"
  },
  {
    "latitude": 46.92427106202606,
    "longitude": -114.09096578553077,
    "title": "077fa266-aaad-4167-a558-47923c5d7f80"
  },
  {
    "latitude": 46.590406344657,
    "longitude": -120.5006563076082,
    "title": "431febb7-d2bc-491a-b48f-c8c733dfad66"
  },
  {
    "latitude": 44.58042579664853,
    "longitude": -120.28329485250535,
    "title": "7a487d76-8df8-4294-ba85-b1e27c73999b"
  },
  {
    "latitude": 48.17844935329269,
    "longitude": -116.53079388506252,
    "title": "0b295b80-5252-4f11-8abb-6e5caa8b1011"
  },
  {
    "latitude": 45.2171092,
    "longitude": -112.63125365,
    "title": "1b37192f-c03b-436a-a35e-fa23ce058ca6"
  },
  {
    "latitude": 33.428133,
    "longitude": -105.799833,
    "title": "31a6f00a-4eb0-466f-a421-f7bb02aa08c1"
  },
  {
    "latitude": 33.78752110148987,
    "longitude": -117.84125737596923,
    "title": "6f5e8af6-c32e-44e2-8903-10ddf9f49f39"
  },
  {
    "latitude": 33.37785558356187,
    "longitude": -108.86981275133205,
    "title": "605b0705-b3d8-441f-8d14-707fc79020d5"
  },
  {
    "latitude": 47.31632678,
    "longitude": -116.57835737,
    "title": "869495b4-5037-494b-a851-01349906e7c7"
  },
  {
    "latitude": 48.42520709236768,
    "longitude": -119.52087086463868,
    "title": "5202ed2e-957e-445f-b6b3-e0d1f639096b"
  },
  {
    "latitude": 36.73606636008277,
    "longitude": -118.96101692834651,
    "title": "04eb9a86-7035-4a95-b2bf-c6ae7216daa2"
  },
  {
    "latitude": 47.08105896276531,
    "longitude": -112.21789136630596,
    "title": "62a8ff27-0ae2-43cb-923c-9e749ea0179e"
  },
  {
    "latitude": 38.22038067467126,
    "longitude": -104.90671633369236,
    "title": "c2ca8d58-7d85-482a-9970-84c50169ed7b"
  },
  {
    "latitude": 46.90059108237654,
    "longitude": -119.63220896238538,
    "title": "a76d2140-ecca-46cf-8b36-39cd756f3089"
  },
  {
    "latitude": 42.205958431422324,
    "longitude": -111.88663999830467,
    "title": "6201cbdb-f3e7-49f0-b847-ade9351a0881"
  },
  {
    "latitude": 36.73605852020224,
    "longitude": -118.96101806808943,
    "title": "0701937c-b44a-4bd0-85f9-c7c5c1317860"
  },
  {
    "latitude": 40.099498776782674,
    "longitude": -115.61674990882399,
    "title": "89d6f37b-c594-432c-903c-bea80d12f1bb"
  },
  {
    "latitude": 37.145378,
    "longitude": -81.3729708,
    "title": "cacb4f3e-2dc8-4674-91db-e734a13c646d"
  },
  {
    "latitude": 38.47563538623529,
    "longitude": -101.7295612270938,
    "title": "09da5fde-8c8d-4734-a16c-5bc9feced63f"
  },
  {
    "latitude": 38.468573291337826,
    "longitude": -101.255216540646,
    "title": "f5e95223-dd09-48b8-ba14-90118d6e0f02"
  },
  {
    "latitude": 39.1833107,
    "longitude": -119.70116857,
    "title": "3f38de8f-7279-4d82-b1c2-4c840171b525"
  },
  {
    "latitude": 33.37744652394831,
    "longitude": -110.77083817483918,
    "title": "cfd9a576-a57b-40ff-a7f5-8fc332ba0ef2"
  },
  {
    "latitude": 33.34117,
    "longitude": -108.92153,
    "title": "df2100f4-cd6f-4dd9-a121-438cbfe30991"
  },
  {
    "latitude": 40.306621311177814,
    "longitude": -118.30560837249854,
    "title": "60139501-be01-46ef-9570-a41c4bb7c32d"
  },
  {
    "latitude": 40.0313899387047,
    "longitude": -105.26350912647811,
    "title": "975e5f92-7276-4f66-a14f-85a0a7a47d5d"
  },
  {
    "latitude": 33.161649814876625,
    "longitude": -112.17253528744422,
    "title": "073a14cc-53a7-4ff4-ae73-f858a079917d"
  },
  {
    "latitude": 34.20167908840214,
    "longitude": -118.11175019847505,
    "title": "b10224b2-6d61-439e-ae97-583606310fa3"
  },
  {
    "latitude": 44.84608225945944,
    "longitude": -121.54645463967412,
    "title": "e940432e-809a-4766-b862-f6daad9bb0af"
  },
  {
    "latitude": 46.468276630312275,
    "longitude": -113.72118389933162,
    "title": "1838b010-bbf0-4483-a2b7-55a25136c6a9"
  },
  {
    "latitude": 35.779589114923084,
    "longitude": -115.31520763259563,
    "title": "fe02e646-f91e-4d4c-ae04-f49f608ca5b0"
  },
  {
    "latitude": 38.089417,
    "longitude": -105.038717,
    "title": "fcdc0e1a-6458-4c66-9568-ff2652f816af"
  },
  {
    "latitude": 47.40254326689944,
    "longitude": -120.33376748182647,
    "title": "0d2a1761-43fc-4821-bb0c-41a5758b4de2"
  },
  {
    "latitude": 39.069027,
    "longitude": -106.35065,
    "title": "aacc0a83-e596-4968-b093-aa036236a77b"
  },
  {
    "latitude": 39.4455943,
    "longitude": -76.7800171,
    "title": "07365354-59ca-4403-ad4e-d7cc44da203d"
  },
  {
    "latitude": 43.029041978654575,
    "longitude": -87.91226790046466,
    "title": "a8a6a86d-9548-46d3-800f-0e56ccf59078"
  },
  {
    "latitude": 37.572306810148994,
    "longitude": -105.84575557502377,
    "title": "f36cbe1b-983e-46e0-9d4e-eed212bac0b4"
  },
  {
    "latitude": 36.7360649148503,
    "longitude": -118.96100237825657,
    "title": "12024dd2-6ebf-4ecd-867f-15b543fd63d3"
  },
  {
    "latitude": 31.083392414182775,
    "longitude": -85.88099127082918,
    "title": "82296b75-d64b-4683-84e2-0ca0e988ad79"
  },
  {
    "latitude": 42.04695758813375,
    "longitude": -123.62193457655974,
    "title": "31c24fce-3ded-4cc9-acd6-482228e1e0d6"
  },
  {
    "latitude": 45.61051268900917,
    "longitude": -113.44790663515941,
    "title": "157c9c59-7719-407d-b9aa-4264ab38bb72"
  },
  {
    "latitude": 34.6371909614381,
    "longitude": -93.03495171026985,
    "title": "5f484aa0-5029-4ab1-b90b-f74e028610dd"
  },
  {
    "latitude": 36.89749107831573,
    "longitude": -115.14103641735045,
    "title": "a6080020-fbb9-4181-a84d-03d92d2fb2e2"
  },
  {
    "latitude": 47.039436859538505,
    "longitude": -114.1109635068044,
    "title": "a649e553-7150-4916-b1d1-2a7ba640f637"
  },
  {
    "latitude": 43.56688034082384,
    "longitude": -116.20916274177927,
    "title": "e62b5ed7-ee3d-44cd-98dd-17ee9c5a28e9"
  },
  {
    "latitude": 40.305703688778266,
    "longitude": -120.90342228613989,
    "title": "0d50eeb6-c46a-47ab-8c48-8da6b7be04ea"
  },
  {
    "latitude": 38.2132869959235,
    "longitude": -104.90055595534378,
    "title": "7d262982-f28a-4ac7-9b65-0f771a522e36"
  },
  {
    "latitude": 41.63224829,
    "longitude": -87.08792089,
    "title": "54c5a61e-e0a8-4ca1-ae4e-8e3f59449ed2"
  },
  {
    "latitude": 47.80687733,
    "longitude": -117.65673333,
    "title": "3411fa9d-f006-46e4-b185-371a00cadcbe"
  },
  {
    "latitude": 29.876998901367188,
    "longitude": -97.79580453359242,
    "title": "ecaa8530-ffeb-4c0a-b92d-a6046e122f0d"
  },
  {
    "latitude": 34.42386371,
    "longitude": -118.57182636,
    "title": "f3c81846-767b-47d5-9ac2-80334dc454b1"
  },
  {
    "latitude": 48.651997395678244,
    "longitude": -119.24888401650286,
    "title": "e0bf2fc9-2627-447e-95e6-efdafc73862b"
  },
  {
    "latitude": 38.30836506827054,
    "longitude": -104.64337019060797,
    "title": "29c4688d-3ab1-4210-af08-1b3b672dcb56"
  },
  {
    "latitude": 45.083716827160494,
    "longitude": -123.7145844253667,
    "title": "9a2ae850-9017-432f-8c90-67576c52c92f"
  },
  {
    "latitude": 38.03381455746336,
    "longitude": -120.21689761101212,
    "title": "3e6faf2b-b61d-4691-b9a6-298215abd876"
  },
  {
    "latitude": 33.213093523135626,
    "longitude": -98.16847407821446,
    "title": "da565cc6-fdd4-40eb-ab8f-e473cdba8ae3"
  },
  {
    "latitude": 38.65496394188165,
    "longitude": -121.11820219119214,
    "title": "91b06a32-f907-4555-88da-57f88975e16b"
  },
  {
    "latitude": 46.96310736523229,
    "longitude": -121.08605634365304,
    "title": "c043ab16-28c5-4262-b093-f6dfa0669358"
  },
  {
    "latitude": 34.156475817146166,
    "longitude": -118.38661486685073,
    "title": "16a78b32-c6ad-4628-a260-bbbc9e7be51a"
  },
  {
    "latitude": 44.28826431479252,
    "longitude": -120.3990983997916,
    "title": "b99e31ad-30f7-448c-80ea-3a66c5b1e352"
  },
  {
    "latitude": 60.22795059825028,
    "longitude": -143.5286903968084,
    "title": "9cdea4d0-37b7-439a-bed6-21409d75ee08"
  },
  {
    "latitude": 34.55280036332105,
    "longitude": -112.5001656015486,
    "title": "cbb14491-3835-41f6-ab79-143f82242580"
  },
  {
    "latitude": 44.003,
    "longitude": -115.937717,
    "title": "fbe6d633-206c-4e77-9749-641fe7554945"
  },
  {
    "latitude": 31.578774036415908,
    "longitude": -110.86351212241652,
    "title": "7ef376b3-9b05-42f3-b93c-f9283abad405"
  },
  {
    "latitude": 32.344638255772225,
    "longitude": -110.73073537270285,
    "title": "f00146a2-205e-4e85-b6bc-d4eefc089bf9"
  },
  {
    "latitude": 48.385623868385615,
    "longitude": -119.55764701504788,
    "title": "ca7924aa-7826-4db4-b904-cc913db01032"
  },
  {
    "latitude": 35.66956043,
    "longitude": -120.64277783,
    "title": "2728934b-a27d-4e18-b628-23572f3c7116"
  },
  {
    "latitude": 46.76091461710353,
    "longitude": -114.06627680974857,
    "title": "bee3c920-656e-46c7-b00f-b629fb2eca61"
  },
  {
    "latitude": 44.97113144,
    "longitude": -116.29359039,
    "title": "0e8846f9-6393-4d83-b6b6-e573174c5b7a"
  },
  {
    "latitude": 40.38335903621184,
    "longitude": -122.53810546348059,
    "title": "5e41dfa3-47ab-4546-82ab-ca7be91cc787"
  },
  {
    "latitude": 47.08121912340181,
    "longitude": -112.21787746457308,
    "title": "e6b7d66c-e08f-4351-8f4a-bb1c038ac868"
  },
  {
    "latitude": 60.40640710115469,
    "longitude": -149.37406200547463,
    "title": "0d270873-b79b-42a1-bca2-3ec279f48725"
  },
  {
    "latitude": 46.05173316126212,
    "longitude": -118.39867479767322,
    "title": "02b68613-34a6-44b2-ae1f-300045892cfb"
  },
  {
    "latitude": 34.08679993,
    "longitude": -118.10437244,
    "title": "9fc421a4-d311-4fda-a59f-60ebb928349f"
  },
  {
    "latitude": 33.61229450832038,
    "longitude": -109.09986612788134,
    "title": "431580b3-92b5-4b35-999b-435ea686ca08"
  },
  {
    "latitude": 45.44925,
    "longitude": -116.93905,
    "title": "cb3663f0-9dce-432f-9e9d-23a4b9bd4a2c"
  },
  {
    "latitude": 36.10251267184778,
    "longitude": -106.8022216659673,
    "title": "1d960432-78cc-43e3-bc51-1279ba22e642"
  },
  {
    "latitude": 40.14325824268471,
    "longitude": -104.71641344588468,
    "title": "314a8e6c-45f2-44e8-9a7c-c188245a3fab"
  },
  {
    "latitude": 42.32321368,
    "longitude": -122.83712409,
    "title": "0cc573a2-1697-44ca-8e94-c4eb3bb21728"
  },
  {
    "latitude": 37.925284209620145,
    "longitude": -105.57065309884014,
    "title": "0d6c86cd-7ab6-444f-91e5-5c3324070301"
  },
  {
    "latitude": 43.73454819,
    "longitude": -121.51926697,
    "title": "ec3620ee-b670-48d2-acd1-31b94210e5f9"
  },
  {
    "latitude": 47.66209966944483,
    "longitude": -117.44052768230101,
    "title": "f6b14777-3998-4ac8-bc33-13f679946705"
  },
  {
    "latitude": 43.550054176825725,
    "longitude": -116.13172598273998,
    "title": "9cf22432-2fcd-44c3-a369-1d1b7bc523dd"
  },
  {
    "latitude": 37.56727719041039,
    "longitude": -106.06151156287952,
    "title": "4e3e8496-61c6-4426-a01e-80e426d84870"
  },
  {
    "latitude": 38.23819222506033,
    "longitude": -100.50134750838684,
    "title": "09720ea2-332b-450e-8722-8604265065b5"
  },
  {
    "latitude": 47.46149409183056,
    "longitude": -111.38547264161087,
    "title": "0eebfe83-2c22-4fb2-ab77-296b3e9bd78b"
  },
  {
    "latitude": 33.428133,
    "longitude": -105.799833,
    "title": "71c2a6e8-dc22-4aab-b363-f11fb490d5c9"
  },
  {
    "latitude": 38.22043904112338,
    "longitude": -104.92185259867914,
    "title": "3af2c521-abf7-4818-bd4d-b3d04caea976"
  },
  {
    "latitude": 33.958698,
    "longitude": -116.506827,
    "title": "99998be8-f203-46c4-a5ea-47a7840b8799"
  },
  {
    "latitude": 35.60555347303388,
    "longitude": -105.71597302678745,
    "title": "db1b5180-c126-4b11-947f-305688efe8c0"
  },
  {
    "latitude": 47.945618341696076,
    "longitude": -117.54578496193156,
    "title": "b6926c9c-9ae9-49e7-a191-2a47297e54eb"
  },
  {
    "latitude": 39.684069273726486,
    "longitude": -105.28886293864916,
    "title": "d11c03a3-0b23-4027-991d-f2ba2f42fd2b"
  },
  {
    "latitude": 38.60449004719002,
    "longitude": -120.70360302714366,
    "title": "b6f3daed-6c3d-4ced-8b99-f8da7880ce0a"
  },
  {
    "latitude": 34.157520295152686,
    "longitude": -109.97762817899694,
    "title": "a2c49d89-5715-4ac9-a676-5473046b42c8"
  },
  {
    "latitude": 25.388067,
    "longitude": -80.649583,
    "title": "032d7d56-565e-4e05-8169-6a9097f428ac"
  },
  {
    "latitude": 45.191319480462646,
    "longitude": -109.33619237757016,
    "title": "20a2b4a0-5df9-4e93-9a1b-6bc3e42f53d6"
  },
  {
    "latitude": 21.35693082121849,
    "longitude": -158.08726497009218,
    "title": "96e98ff0-16a4-4089-8aaf-d0e62e0617fa"
  },
  {
    "latitude": 44.89208734643723,
    "longitude": -116.10456818914804,
    "title": "57f44c72-724b-4c46-95c4-09f6539563be"
  },
  {
    "latitude": 44.273731590066504,
    "longitude": -121.20414832574181,
    "title": "cbfc7f65-2643-42c7-b6d2-a9d329a59c59"
  },
  {
    "latitude": 42.10980229232733,
    "longitude": -123.43772452323317,
    "title": "1aff0993-f982-4f9b-8ca0-3292140ffe7b"
  },
  {
    "latitude": 30.278802898139265,
    "longitude": -96.57018849825523,
    "title": "d2f22b83-f11f-4f62-8f90-1228b4ff5601"
  },
  {
    "latitude": 36.32247761940814,
    "longitude": -121.68782590308356,
    "title": "827be0e9-3a98-4e7d-9f2c-e4d811d80c5f"
  },
  {
    "latitude": 45.45613980109861,
    "longitude": -111.2429450520691,
    "title": "054ab291-3bb7-402d-ac4a-737c037adb32"
  },
  {
    "latitude": 38.25944513086084,
    "longitude": -120.32079217035354,
    "title": "259f9463-9b9d-44f5-b59b-51d851cbab9b"
  },
  {
    "latitude": 42.21696380418425,
    "longitude": -123.10239157261314,
    "title": "53fbf061-79bc-4de4-a663-4e72de04aa76"
  },
  {
    "latitude": 44.26635586017363,
    "longitude": -123.71753884043827,
    "title": "fd77e20e-961b-4f51-8edb-dba01e4d2d27"
  },
  {
    "latitude": 45.4554163,
    "longitude": -121.12387793,
    "title": "23334539-cc8f-4565-8744-449113d011ed"
  },
  {
    "latitude": 46.238,
    "longitude": -113.886,
    "title": "cfac15ae-04cb-4a0d-b7ff-c395bffbb36c"
  },
  {
    "latitude": 38.647358378201005,
    "longitude": -121.15185405786222,
    "title": "36675bf4-af4e-41e9-8061-c2d9f303aabb"
  },
  {
    "latitude": 43.21403407026082,
    "longitude": -123.34360376000404,
    "title": "f8f91d84-f8be-42bb-a736-c18c79c7acd9"
  },
  {
    "latitude": 46.915206550920765,
    "longitude": -114.05324874501424,
    "title": "dafd17f7-2392-40ef-a5f9-142f6facebcf"
  },
  {
    "latitude": 46.27108623,
    "longitude": -122.89156092,
    "title": "47995fe4-848c-45a3-87d3-e6ffb3862028"
  },
  {
    "latitude": 33.94919158304204,
    "longitude": -81.01721394831588,
    "title": "b279fda1-0a59-48fe-b66f-cb920e7f41d1"
  },
  {
    "latitude": 45.265792547403585,
    "longitude": -112.73770487424039,
    "title": "1b9c8c9d-394e-4e6c-8803-c539e0e5b4bf"
  },
  {
    "latitude": 32.93167735,
    "longitude": -108.015088,
    "title": "4e27caae-c6fc-44cb-b1e9-40bebd00c188"
  },
  {
    "latitude": 38.58688192610772,
    "longitude": -120.94634136515874,
    "title": "5fd24770-8207-41d0-927c-ec0a85238d4b"
  },
  {
    "latitude": 43.22415666666667,
    "longitude": -123.351445,
    "title": "c3c66431-92e0-492f-9075-a7578083f305"
  },
  {
    "latitude": 44.29325967565578,
    "longitude": -121.5557234456032,
    "title": "0d40e00c-70ac-462d-8a99-bceed82c7d85"
  },
  {
    "latitude": 33.17863310896453,
    "longitude": -86.63279174700904,
    "title": "eae8dbe0-1841-4777-b37a-3e5a2c300184"
  },
  {
    "latitude": 29.498166666666666,
    "longitude": -95.09,
    "title": "9fc13935-db6a-4e61-95da-818a9de815a2"
  },
  {
    "latitude": 46.79807572338929,
    "longitude": -119.80535817050425,
    "title": "75a122f8-57f7-41eb-a1a0-aaa7ac7e54b9"
  },
  {
    "latitude": 39.712755678276075,
    "longitude": -105.1941935163224,
    "title": "80fc5e98-258c-42e4-9152-927f1a87d86f"
  },
  {
    "latitude": 33.852153657114656,
    "longitude": -111.83162113145842,
    "title": "4bf561d9-5b62-4743-b29c-7eb8826c8e98"
  },
  {
    "latitude": 38.1948882,
    "longitude": -104.9123004,
    "title": "cd97f99c-70cd-4b64-b5c3-389d680e1855"
  },
  {
    "latitude": 48.36437272286098,
    "longitude": -115.31758973352775,
    "title": "22bc89ef-fe89-4eb0-b7e4-18dd56f2c3f3"
  },
  {
    "latitude": 35.187220905899274,
    "longitude": -106.57203173991992,
    "title": "198285ed-658b-4928-9d0a-e56e06d32d95"
  },
  {
    "latitude": 45.79090713,
    "longitude": -111.05847022,
    "title": "bd821f70-ce64-4a9f-a95f-aeea8f245661"
  },
  {
    "latitude": 36.864583,
    "longitude": -119.10255,
    "title": "ea1684c1-5d22-4e54-9995-edad95f55204"
  },
  {
    "latitude": 36.25507646502406,
    "longitude": -115.96196397904887,
    "title": "5006ea66-c560-4108-a289-a9d78e4ed238"
  },
  {
    "latitude": 33.6232921715399,
    "longitude": -114.50458475792057,
    "title": "ac452c22-d980-4a85-8b45-71ba0a6053af"
  },
  {
    "latitude": 46.27093359775079,
    "longitude": -114.15900071515655,
    "title": "8aa53e36-ad6a-4912-badc-c02d0f6a33ee"
  },
  {
    "latitude": 35.53722968780871,
    "longitude": -82.93835147447517,
    "title": "7579f4f0-396b-4326-a1f5-8025d593c8f5"
  },
  {
    "latitude": 40.103931893209634,
    "longitude": -105.25941735280632,
    "title": "e55589a7-bf7d-48eb-beeb-fd11122ae79b"
  },
  {
    "latitude": 38.852603356023295,
    "longitude": -122.51978941682263,
    "title": "037e54d0-88e5-4ba0-83ae-6a33030d77fd"
  },
  {
    "latitude": 35.64709253,
    "longitude": -117.76284998,
    "title": "2893bc89-6a47-4da7-9dc7-bc3021df1b47"
  },
  {
    "latitude": 46.87502728014587,
    "longitude": -123.4873948945088,
    "title": "7db9b8d1-06ac-45da-99e5-d8574902bb8b"
  },
  {
    "latitude": 28.076466165449155,
    "longitude": -82.35016176581811,
    "title": "a2035ad6-0d04-4a56-9c2c-c19ac89d9201"
  },
  {
    "latitude": 40.825471887100264,
    "longitude": -115.71145775493302,
    "title": "d5661a4b-a526-446c-b73d-b55fdb161346"
  },
  {
    "latitude": 47.43795756391231,
    "longitude": -120.31564432499633,
    "title": "cdb92f68-ca04-4cf1-b270-df99720534b0"
  },
  {
    "latitude": 63.775,
    "longitude": -152.407217,
    "title": "4c7e44fe-a690-4113-9623-5d538c5ee069"
  },
  {
    "latitude": 36.16598060379928,
    "longitude": -115.39268869924706,
    "title": "fcbeeca7-57ac-40d4-a535-b178af803f95"
  },
  {
    "latitude": 58.312029313758615,
    "longitude": -134.3281699374302,
    "title": "5bdbd73b-1f7a-49ef-8269-e02bf17cabba"
  },
  {
    "latitude": 46.2150383851147,
    "longitude": -119.73970984316435,
    "title": "54f4b391-ac13-4ec8-b22e-0612fe2e5cb4"
  },
  {
    "latitude": 32.19223632894961,
    "longitude": -110.86544839800908,
    "title": "565950b8-313f-478d-9323-3cf4cc32f322"
  },
  {
    "latitude": 47.709018549169876,
    "longitude": -117.416155514909,
    "title": "7c9d3a15-57ab-4426-9834-9ad68702b845"
  },
  {
    "latitude": 45.17132492740188,
    "longitude": -109.26019669520599,
    "title": "198ba3b7-0403-4b80-8cc7-8546f8a2f46d"
  },
  {
    "latitude": 43.72612476205091,
    "longitude": -116.48051604319505,
    "title": "f5522ac7-6e00-449e-b665-de9f7c31d8e4"
  },
  {
    "latitude": 46.8986241264426,
    "longitude": -116.89546406012025,
    "title": "be1f3ee0-8f09-4b7c-9deb-fe4c60e0d1ab"
  },
  {
    "latitude": 33.377815289881006,
    "longitude": -108.8698679265282,
    "title": "e778459f-efaf-430f-b775-64c3000ba022"
  },
  {
    "latitude": 48.59357141894157,
    "longitude": -93.40944816367086,
    "title": "057d471f-c9bd-4d83-9209-6269ae199d79"
  },
  {
    "latitude": 39.60104066,
    "longitude": -110.83248196,
    "title": "bc6e9c2e-6d9c-4f4c-a19c-6e0eb7ba6a5c"
  },
  {
    "latitude": 32.798292232017616,
    "longitude": -108.2679973241779,
    "title": "2d78f0c7-9e3a-48ea-a0b4-5ef777046f25"
  },
  {
    "latitude": 33.449067759125285,
    "longitude": -112.4436662493636,
    "title": "28c4c12d-8c39-4d11-8355-1fdf7b25fcbb"
  },
  {
    "latitude": 39.650931714576124,
    "longitude": -106.36818586427367,
    "title": "fd5127fd-8360-4824-94a0-c505905ceab2"
  },
  {
    "latitude": 40.526386788397204,
    "longitude": -111.49158469998724,
    "title": "572dddba-f45e-465f-8281-3588f0814025"
  },
  {
    "latitude": 35.172231355714885,
    "longitude": -118.65432154398287,
    "title": "39af2f3d-b310-477b-be25-c1ce762ab993"
  },
  {
    "latitude": 38.29773101899713,
    "longitude": -120.26628828035456,
    "title": "247e2727-74ad-44a6-9d4c-8a16222ee93a"
  },
  {
    "latitude": 48.727193258830425,
    "longitude": -122.35323378554362,
    "title": "a0647518-9cef-45e5-9a7a-1e3d0cec63db"
  },
  {
    "latitude": 47.76017657060131,
    "longitude": -121.48168053432579,
    "title": "a8bf889c-6c5d-4da0-acb2-9e818677126c"
  },
  {
    "latitude": 47.83483210138859,
    "longitude": -118.43344812194618,
    "title": "f7d5a2ee-04bd-4fca-b182-b2ddefcf339b"
  },
  {
    "latitude": 35.50313480495186,
    "longitude": -115.09480773070628,
    "title": "51beeb18-b6a3-4c99-a542-96d80969f011"
  },
  {
    "latitude": 44.906708286185946,
    "longitude": -116.10661860566223,
    "title": "acff8ae1-9339-43ed-97ed-a0b849c25b82"
  },
  {
    "latitude": 43.6467,
    "longitude": -121.477533,
    "title": "33fe949d-3137-4da0-8fe1-de7fa5fa782c"
  },
  {
    "latitude": 38.21942881,
    "longitude": -104.89986161,
    "title": "40a1b60a-8822-475e-afbb-8b0b5385ed0c"
  },
  {
    "latitude": 40.14595076299698,
    "longitude": -120.95694097026775,
    "title": "41640276-062e-4069-bd6f-402e6f85868c"
  },
  {
    "latitude": 39.58337041851452,
    "longitude": -120.37016327458308,
    "title": "bc2d83a6-b039-49ec-87a6-e6b8abc06365"
  },
  {
    "latitude": 45.21989764591957,
    "longitude": -112.62127835593492,
    "title": "219e5ee0-8ab8-4ea1-bddf-516cf0ccc904"
  },
  {
    "latitude": 42.37205277,
    "longitude": -122.84920882,
    "title": "d08a5f02-c6f0-48b6-bc17-ed716cf27dc5"
  },
  {
    "latitude": 40.181048374699266,
    "longitude": -118.46069362036803,
    "title": "0e923eeb-6a7e-4064-85bd-9ed7539a36fe"
  },
  {
    "latitude": 33.72632355432373,
    "longitude": -112.11751724603782,
    "title": "48a09848-7590-48ec-9ad6-6d63fa91d7ce"
  },
  {
    "latitude": 47.82673683705858,
    "longitude": -119.46156786484558,
    "title": "6a1e8e34-24ce-4696-8ac8-f9ad8ac4b980"
  },
  {
    "latitude": 40.18902341855521,
    "longitude": -105.1780036207027,
    "title": "da00af76-d3ec-462d-aae9-4c23bcc73e53"
  },
  {
    "latitude": 45.622650146484375,
    "longitude": -110.81870587861235,
    "title": "2b354b9a-15cd-4c02-81ec-51c62c5b6fde"
  },
  {
    "latitude": 48.06610984355459,
    "longitude": -114.08338699243983,
    "title": "ff5dc274-7d2e-44c7-a5b2-1089203e97ad"
  },
  {
    "latitude": 44.075410703278216,
    "longitude": -103.52543843245194,
    "title": "fad46187-8e56-44c9-b4ef-c754086b26e3"
  },
  {
    "latitude": 45.64002,
    "longitude": -121.797121,
    "title": "a1650a73-aa99-45fb-9dd0-fac0e3fba549"
  },
  {
    "latitude": 46.92618496,
    "longitude": -114.09247315,
    "title": "6ffb9909-7602-4179-a38a-970eb835eaf0"
  },
  {
    "latitude": 44.027369102509674,
    "longitude": -123.18259184824609,
    "title": "d0a9579f-fb9d-4ff1-9473-b5c97b6303c6"
  },
  {
    "latitude": 37.611426685444435,
    "longitude": -114.52734771898858,
    "title": "74dd31b2-3feb-4d77-9c74-0aed14c2a5ab"
  },
  {
    "latitude": 33.94891812466702,
    "longitude": -116.82511429184203,
    "title": "3805a5af-0c19-4b9f-b317-9a9d23daf753"
  },
  {
    "latitude": 43.174728225025774,
    "longitude": -110.28596654544612,
    "title": "78642d07-a65c-44e0-bf79-d7cd3bd5128f"
  },
  {
    "latitude": 48.487111386632755,
    "longitude": -122.60037725950056,
    "title": "e9bf5dc1-7dfc-4844-90e3-fb67e1c25427"
  },
  {
    "latitude": 39.53992396226018,
    "longitude": -119.78943903557533,
    "title": "361e979b-b764-4880-a1b6-198c26776b1e"
  },
  {
    "latitude": 45.40567670998654,
    "longitude": -117.2850784857408,
    "title": "4828297a-82d1-4ae1-bad8-cde20a2844be"
  },
  {
    "latitude": 40.16578830071206,
    "longitude": -120.96201768874975,
    "title": "a3b8d240-cb50-4497-ba9d-46181f98d8bb"
  },
  {
    "latitude": 45.440441374394304,
    "longitude": -120.25776304428716,
    "title": "f83de6c7-651a-4021-ac76-6bcfc6f0c44d"
  },
  {
    "latitude": 45.47546825087185,
    "longitude": -117.18733998811173,
    "title": "1c5a2016-1a42-4a71-90cf-c11f06325f88"
  },
  {
    "latitude": 47.39622453,
    "longitude": -122.70674462,
    "title": "fa40d302-6493-4c7e-8879-699b34893992"
  },
  {
    "latitude": 41.585875,
    "longitude": -87.281356,
    "title": "3c3e1246-636b-40c3-9884-f09c66ab9767"
  },
  {
    "latitude": 48.2359619140625,
    "longitude": -114.35123492974263,
    "title": "d4bf5904-58b3-43dc-b879-1bf00ff4c32f"
  },
  {
    "latitude": 46.9804275,
    "longitude": -123.8028736,
    "title": "51d6249c-08a9-4704-b41a-351af4723ad1"
  },
  {
    "latitude": 35.72588082871944,
    "longitude": -83.4789882973614,
    "title": "83dbe540-edc3-4a66-82a1-bb0c192aa0b4"
  },
  {
    "latitude": 45.897766212980386,
    "longitude": -120.8238663339556,
    "title": "1f8c7859-93da-414d-9c5e-954ee8d76369"
  },
  {
    "latitude": 35.65539842606953,
    "longitude": -105.97971955852533,
    "title": "a1792501-5a22-442f-912d-9c8a9e9dd5d2"
  },
  {
    "latitude": 46.70662419,
    "longitude": -120.75301414,
    "title": "7934a8d8-ced8-4737-88af-cc8f49fd3813"
  },
  {
    "latitude": 38.370888077520675,
    "longitude": -88.41984203764564,
    "title": "30ad1b11-43bc-4c05-ac17-d9b5a25d5ff8"
  },
  {
    "latitude": 38.821868896484375,
    "longitude": -86.49134891115733,
    "title": "787f97a3-c600-4ed3-a3eb-55fd0d00192a"
  },
  {
    "latitude": 42.92906743631569,
    "longitude": -122.11299977054605,
    "title": "9b8e4893-6727-4dbe-b4a2-a45b8650fe98"
  },
  {
    "latitude": 47.82695542602114,
    "longitude": -118.43023174135395,
    "title": "b33b0b8e-90de-4e34-9d1b-5acee1c95ce5"
  },
  {
    "latitude": 46.72199030461444,
    "longitude": -112.01992477933237,
    "title": "848cd253-9e0f-4ef2-a112-e25d888bb3ec"
  },
  {
    "latitude": 42.32124340724439,
    "longitude": -114.41279849979506,
    "title": "d5a655cc-23f8-455e-b194-5841ebcf2ba0"
  },
  {
    "latitude": 44.027322088409484,
    "longitude": -123.18241523590235,
    "title": "0bf47627-1411-428f-8eb4-6bf2a0d960af"
  },
  {
    "latitude": 33.624934260718305,
    "longitude": -117.73970366471545,
    "title": "5ab8ff13-37e6-496c-947a-2e29e72a3a99"
  },
  {
    "latitude": 35.916252116419436,
    "longitude": -77.63775242263205,
    "title": "5f41c490-0912-4aee-88fd-ab6f6fc5bf2c"
  },
  {
    "latitude": 40.345640518004224,
    "longitude": -121.88805946407336,
    "title": "83574f9e-397c-404b-b82d-2454848b090c"
  },
  {
    "latitude": 47.95482733783252,
    "longitude": -117.47258266692081,
    "title": "014a6664-585c-453e-978a-725b94fca531"
  },
  {
    "latitude": 45.51516497,
    "longitude": -122.62311063,
    "title": "247e37a9-c942-47d7-b647-b51dbc0f876a"
  },
  {
    "latitude": 43.188724128603454,
    "longitude": -112.34415247515248,
    "title": "13fdff2a-75f3-4e8a-acb2-db722c187432"
  },
  {
    "latitude": 39.685929323217124,
    "longitude": -105.38552719038022,
    "title": "8eca8380-3dd1-4ec9-b3d6-58309cf88429"
  },
  {
    "latitude": 45.12683464677916,
    "longitude": -109.36499093611963,
    "title": "c70073e1-e923-47f1-ac31-620c466f380d"
  },
  {
    "latitude": 41.70222434378375,
    "longitude": -70.54675756527138,
    "title": "fbd73718-5de9-4a6a-86df-bebee45efc11"
  },
  {
    "latitude": 65.191421253427,
    "longitude": -148.19219286477906,
    "title": "51e6e7e9-6f8f-4130-a7be-f8f4ba8370d7"
  },
  {
    "latitude": 21.973260169692995,
    "longitude": -159.37468594055545,
    "title": "9c15819a-ea80-49e4-a61c-3b9785cfbb4c"
  },
  {
    "latitude": 46.6887,
    "longitude": -111.696133,
    "title": "e2c3654f-e100-461f-a39e-bc431609e9e5"
  },
  {
    "latitude": 45.1908592206825,
    "longitude": -109.3358252908076,
    "title": "39e1b69f-9a12-4634-806c-ef4a96bcc38f"
  },
  {
    "latitude": 37.208666666666666,
    "longitude": -112.98216666666667,
    "title": "c83a5363-aeb0-4c66-864c-986b9f070379"
  },
  {
    "latitude": 47.08596,
    "longitude": -104.19878,
    "title": "2fdee111-d943-4501-b084-ea0241df5036"
  },
  {
    "latitude": 45.53375891656552,
    "longitude": -110.56971831963233,
    "title": "c99263bc-0bc7-4808-8e04-8b9f60ccb985"
  },
  {
    "latitude": 48.53272254423528,
    "longitude": -121.77726035736758,
    "title": "a523c41e-1657-4953-9b24-8523194e63ea"
  },
  {
    "latitude": 44.385254103655335,
    "longitude": -123.10724918807307,
    "title": "52e29e57-93a6-4f18-b2ac-82ba237b2743"
  },
  {
    "latitude": 42.760315517727115,
    "longitude": -123.32646889729958,
    "title": "de450fda-ee81-4723-9e75-6d5f7d5cda88"
  },
  {
    "latitude": 35.163417449253885,
    "longitude": -107.84867506484301,
    "title": "0a9c05d2-da20-49ee-a219-4f66d0ac2320"
  },
  {
    "latitude": 38.234812,
    "longitude": -112.491335,
    "title": "9a9cd16f-852e-4d1f-afcd-e826d83281f4"
  },
  {
    "latitude": 35.716103773763656,
    "longitude": -118.44992989011826,
    "title": "fa39a2b9-7840-4ce1-8dce-e319d8afef2e"
  },
  {
    "latitude": 46.72200576723355,
    "longitude": -112.0198827468188,
    "title": "190c7cc1-1f35-4a2a-869d-07eecf376f55"
  },
  {
    "latitude": 46.59452848852566,
    "longitude": -120.44997218895567,
    "title": "10013bde-ae49-42da-8b83-ed8d14819137"
  },
  {
    "latitude": 38.79326956480575,
    "longitude": -123.02855401027361,
    "title": "8958e904-7cae-414a-a498-ab686e55930f"
  },
  {
    "latitude": 38.496161678706,
    "longitude": -122.52330709427365,
    "title": "2485317b-b6ca-4885-b076-412acfe1dc38"
  },
  {
    "latitude": 33.84013284,
    "longitude": -117.59884146,
    "title": "4c12d83c-fbd1-47e0-9664-19f86260af17"
  },
  {
    "latitude": 32.287956600317955,
    "longitude": -106.7779761922774,
    "title": "9e0c848b-b1a9-4451-9429-79329a755b21"
  },
  {
    "latitude": 43.693737490605656,
    "longitude": -121.45816731939783,
    "title": "9ca9360d-20dd-4252-9c8b-8ee829faf1c7"
  },
  {
    "latitude": 39.43007491314481,
    "longitude": -105.45430297661947,
    "title": "faa527ee-340e-43f1-92bc-7afbae977062"
  },
  {
    "latitude": 47.82391985267803,
    "longitude": -120.0957821901036,
    "title": "dcdba4e7-0705-403c-9f53-f61ec9bf4805"
  },
  {
    "latitude": 39.069027,
    "longitude": -106.35065,
    "title": "565bb7ba-ba1a-4295-80a0-e7ddb67e5f9d"
  },
  {
    "latitude": 41.284550814134846,
    "longitude": -105.37036971250592,
    "title": "29eca43e-9a8e-43c5-b09d-1001ae40eb9e"
  },
  {
    "latitude": 35.44104190255197,
    "longitude": -119.07576436738466,
    "title": "c9a1e085-9eac-42bb-bb83-548acb720793"
  },
  {
    "latitude": 45.56084617,
    "longitude": -122.53809109,
    "title": "3b55e133-211d-46c5-8cad-a74da521741b"
  },
  {
    "latitude": 40.007883294242156,
    "longitude": -74.50179175115741,
    "title": "625c8033-997a-4419-9f4c-bd7ed7219e1d"
  },
  {
    "latitude": 41.46505,
    "longitude": -123.06275,
    "title": "4f4e4787-945f-4690-983e-ce5cf4eb4dee"
  },
  {
    "latitude": 44.410600769911525,
    "longitude": -84.6964433578732,
    "title": "dcfab254-adbb-4fd9-ba90-2858daf1170e"
  },
  {
    "latitude": 43.2100454159486,
    "longitude": -110.42958157147321,
    "title": "72a30488-5dc1-4ae4-b8a4-2e5386e49d22"
  },
  {
    "latitude": 46.42892051525852,
    "longitude": -110.938670834756,
    "title": "c0f5555c-7cd7-4d3c-98d3-84f1bbee5a3c"
  },
  {
    "latitude": 34.975749399261694,
    "longitude": -106.34186867650716,
    "title": "6abaeccd-eda6-46b9-ad7b-eaf3921f971e"
  },
  {
    "latitude": 48.41743937,
    "longitude": -114.36940189,
    "title": "54dd6efb-d062-4eb1-8682-806dc000ddba"
  },
  {
    "latitude": 42.22636197780868,
    "longitude": -123.1404173571785,
    "title": "f408aa04-b936-4f75-8496-ce504e84a549"
  },
  {
    "latitude": 33.55547849092041,
    "longitude": -111.61657104279065,
    "title": "827ff68b-793b-4a40-9c8e-3c46d322d308"
  },
  {
    "latitude": 48.16738749061242,
    "longitude": -92.73407140647807,
    "title": "820002c1-e6d5-40f9-8aed-5e860a4e0a76"
  },
  {
    "latitude": 48.22229832207941,
    "longitude": -117.06216986451527,
    "title": "df12df01-2ece-44e0-872f-9860b8353d07"
  },
  {
    "latitude": 36.93566266,
    "longitude": -106.99951526,
    "title": "e8eb093c-eb79-4516-9cf5-e2f6f5ed35b9"
  },
  {
    "latitude": 40.04372450470647,
    "longitude": -105.93070102381161,
    "title": "7e0716a1-d2e2-429f-be46-22b8264f7d3a"
  },
  {
    "latitude": 39.59742824395077,
    "longitude": -74.47863824872493,
    "title": "f3808baa-cf3b-470e-85f7-f3444355ecf6"
  },
  {
    "latitude": 34.044981666666665,
    "longitude": -118.27494333333334,
    "title": "0916bdb9-0e22-4b51-80e4-976b29771c7d"
  },
  {
    "latitude": 34.934444,
    "longitude": -107.934611,
    "title": "96697bff-bd5e-4b95-be41-011254f5c423"
  },
  {
    "latitude": 33.33578398488898,
    "longitude": -105.6729889847231,
    "title": "bb3dd3d2-3bab-4f6b-8246-5e60475f329c"
  },
  {
    "latitude": 34.786833,
    "longitude": -120.052,
    "title": "4fede6d1-f191-4c9b-8d0d-1bf8293e1f73"
  },
  {
    "latitude": 39.61462231628618,
    "longitude": -81.18102344455185,
    "title": "4c39c797-fa3a-438c-917d-b8d17b2d37f3"
  },
  {
    "latitude": 48.1661585,
    "longitude": -116.7481316,
    "title": "9e7648b3-0c3d-4a5b-9019-8f0ecfe72ec8"
  },
  {
    "latitude": 38.915643701193744,
    "longitude": -120.0013569550819,
    "title": "3cb37eaf-fa87-41df-97ca-7e11a5c89b9a"
  },
  {
    "latitude": 39.330699552820654,
    "longitude": -82.31740119488943,
    "title": "414b9b49-9e88-4e89-bdf5-94b7f28a4115"
  },
  {
    "latitude": 34.423344583672204,
    "longitude": -98.0537355995416,
    "title": "9fcdbb72-0614-435d-863b-84aa32641548"
  },
  {
    "latitude": 43.915335254506616,
    "longitude": -122.32836043744673,
    "title": "8c828f77-bd96-4957-9547-c5505d4e7e3a"
  },
  {
    "latitude": 45.7917536,
    "longitude": -119.1849492,
    "title": "73e90dd6-00b4-49e6-bda7-b49096d5cc84"
  },
  {
    "latitude": 39.06387569852086,
    "longitude": -120.94230894941924,
    "title": "240e0cba-966d-48a0-973d-920be4f68fa8"
  },
  {
    "latitude": 45.290087035713725,
    "longitude": -114.34894140094353,
    "title": "3a5b4d13-3768-40b8-9eca-f4a334e3183a"
  },
  {
    "latitude": 37.83952166666666,
    "longitude": -112.83025333333332,
    "title": "41a7f61d-92f3-41da-b1dc-fd3aa2a4e70b"
  },
  {
    "latitude": 61.766011209428754,
    "longitude": -150.0432290862321,
    "title": "8c7c9471-7379-4519-aece-0d4b4f9c41db"
  },
  {
    "latitude": 47.834789657797224,
    "longitude": -118.43310268841944,
    "title": "bdcf05f6-5a42-4e92-943f-293cffd77efa"
  },
  {
    "latitude": 38.21734844692414,
    "longitude": -104.92914699896835,
    "title": "bccab2f1-e13d-4c1c-877c-d0de56167ff7"
  },
  {
    "latitude": 42.099019104976826,
    "longitude": -123.40973997640799,
    "title": "cd023cd0-0d58-433b-be28-267902b0acc0"
  },
  {
    "latitude": 46.75800210057548,
    "longitude": -114.06914849903556,
    "title": "466205db-7301-48ad-ab8f-d376c45690d4"
  },
  {
    "latitude": 46.73743446573565,
    "longitude": -117.10177944120544,
    "title": "f66293a7-4831-4f86-90cd-1544c68b5557"
  },
  {
    "latitude": 46.57922692092026,
    "longitude": -112.08153773165513,
    "title": "698a9f0e-c8f8-47c3-ac6e-49e0738d444d"
  },
  {
    "latitude": 45.20515111743114,
    "longitude": -106.80780235019648,
    "title": "7442183f-c9cf-471d-a810-4021a80b1042"
  },
  {
    "latitude": 46.50326909787337,
    "longitude": -114.08645828979569,
    "title": "a035bec8-1221-4b7a-ae92-d2b5d621bf99"
  },
  {
    "latitude": 38.20717763,
    "longitude": -104.88404148,
    "title": "3b686bcc-12f2-4ce3-a7aa-9ebcb68920d9"
  },
  {
    "latitude": 39.61811697166567,
    "longitude": -82.85903622924698,
    "title": "cffe708a-8345-46f5-afb2-34651d835d92"
  },
  {
    "latitude": 36.98834426704527,
    "longitude": -121.97271558467482,
    "title": "b0feac97-8adc-45ad-b77a-2f76936bf661"
  },
  {
    "latitude": 33.33798953614561,
    "longitude": -105.70776091679224,
    "title": "0aa4ca08-aacf-4ab6-bf1f-4287c30e95b9"
  },
  {
    "latitude": 34.07990481748764,
    "longitude": -81.12774126411608,
    "title": "e9fa1275-4304-4512-b9e5-6cd4cac84e1e"
  },
  {
    "latitude": 30.214066836223424,
    "longitude": -84.67212536740497,
    "title": "7dd40ddb-7273-428c-b68d-cd1a5c778179"
  },
  {
    "latitude": 40.68105868308846,
    "longitude": -74.32240312542363,
    "title": "ff13a5fb-c7f7-4aa4-a8f4-39c9fa351ac0"
  },
  {
    "latitude": 45.19545851269796,
    "longitude": -109.24768180275251,
    "title": "6b8e785b-4ff3-4744-afdd-f5d87e9abea8"
  },
  {
    "latitude": 38.06238825242237,
    "longitude": -107.91856755593987,
    "title": "c6e855e6-5fd2-4d38-a770-bb9d9b896988"
  },
  {
    "latitude": 39.9237315966505,
    "longitude": -120.7974653230011,
    "title": "b7dcd3fd-31a4-44e1-8d9b-6aaa3b42a3f5"
  },
  {
    "latitude": 44.05000326871792,
    "longitude": -121.30447868725918,
    "title": "57d11a93-9bc9-4ee1-abd9-78558eecac67"
  },
  {
    "latitude": 46.232397195565,
    "longitude": -114.2166917399209,
    "title": "5d12f4ab-0538-408b-993d-159793edffbf"
  },
  {
    "latitude": 42.18633,
    "longitude": -123.04717,
    "title": "3e524d95-5f13-4397-a979-84514e53f9b8"
  },
  {
    "latitude": 37.00712267990938,
    "longitude": -121.94791344910045,
    "title": "1866d997-5c48-4ff9-922c-1e971c2373d3"
  },
  {
    "latitude": 34.98147996880207,
    "longitude": -118.55192347122276,
    "title": "20c8840b-5fd2-4416-b713-a188cb68d417"
  },
  {
    "latitude": 40.065034969824104,
    "longitude": -74.05708832473101,
    "title": "58b688b3-112a-439b-a746-388b42f358f2"
  },
  {
    "latitude": 34.25006393,
    "longitude": -117.32537189,
    "title": "a0bceec7-19e7-4b60-bd50-b233f66ae279"
  },
  {
    "latitude": 37.36623730048306,
    "longitude": -118.39610058825315,
    "title": "e6b36ca5-baa4-4bb6-9d23-c97a68697f9d"
  },
  {
    "latitude": 46.95389494725345,
    "longitude": -112.6592747167195,
    "title": "298ea13f-d058-4f35-b0fc-6d236bb5c7e5"
  },
  {
    "latitude": 42.23390377573231,
    "longitude": -113.97777264541376,
    "title": "aff5e0c6-2eeb-4cf9-8c49-9fec22860acc"
  },
  {
    "latitude": 39.928530740043506,
    "longitude": -120.89189468924972,
    "title": "fb695fe1-52b8-4074-a564-382dfd6c2bb8"
  },
  {
    "latitude": 34.2877648571918,
    "longitude": -87.63020720878568,
    "title": "53587abd-8bf7-4e0f-9784-8481969fa038"
  },
  {
    "latitude": 44.93526904788471,
    "longitude": -123.00959029970669,
    "title": "a11588fd-9e02-46b9-8f38-e4dccd72f4bd"
  },
  {
    "latitude": 46.92622084,
    "longitude": -114.09251209,
    "title": "0b9d450d-88d9-4095-9953-667d7a739ead"
  },
  {
    "latitude": 40.226274604424866,
    "longitude": -74.08145298803711,
    "title": "631a0dd7-bbe1-4ab2-bb6b-62d55de75100"
  },
  {
    "latitude": 39.680755949246176,
    "longitude": -74.42275284836577,
    "title": "c0aaa08a-b48c-4328-a112-1a370f5b7ce8"
  },
  {
    "latitude": 47.56085821663717,
    "longitude": -94.85656153176105,
    "title": "4b5032cc-7105-4509-9b94-cda998a7ba97"
  },
  {
    "latitude": 46.60285897239187,
    "longitude": -111.9903480460969,
    "title": "23d459f9-f93d-4f1f-8d62-5e056f2c6444"
  },
  {
    "latitude": 40.18633333333352,
    "longitude": -123.59216666666661,
    "title": "f51001ff-a20a-440a-a2e7-cdd242431e04"
  },
  {
    "latitude": 42.76349714,
    "longitude": -105.39810125,
    "title": "beda3e69-59c5-4f65-9d79-a766dabbee4f"
  },
  {
    "latitude": 46.818383,
    "longitude": -112.533867,
    "title": "ae998a2b-b632-4a8b-ac7a-eae1ffcc14a3"
  },
  {
    "latitude": 33.32269380337877,
    "longitude": -105.64336247752014,
    "title": "b83273b4-5df8-42e4-ba4f-02801c786463"
  },
  {
    "latitude": 43.56853702983237,
    "longitude": -121.28502585211214,
    "title": "8b9c0305-9792-4610-87b8-3b73b5759296"
  },
  {
    "latitude": 42.75906409,
    "longitude": -123.05840783,
    "title": "b26b4701-54ff-4059-9b0b-8568fc0906c8"
  },
  {
    "latitude": 43.55437541517676,
    "longitude": -121.29413457245401,
    "title": "11a87128-b582-44dc-a884-3bd72f31db13"
  },
  {
    "latitude": 45.364333,
    "longitude": -121.244667,
    "title": "6f4f068b-c8af-488f-94bc-14db77925e63"
  },
  {
    "latitude": 37.28612581,
    "longitude": -113.76128769,
    "title": "34dcb09c-c8b6-4858-a528-eed26aef17b9"
  },
  {
    "latitude": 41.071597859824884,
    "longitude": -122.36010060524231,
    "title": "9f845a7b-6b19-482d-9550-15978654d654"
  },
  {
    "latitude": 37.84535231782228,
    "longitude": -79.4045811660393,
    "title": "6b713a61-fd51-4a52-a356-8242a9a98372"
  },
  {
    "latitude": 46.678256525774316,
    "longitude": -111.66105171086839,
    "title": "2c1f822d-3f36-4a2e-8186-8eaad67ecff7"
  },
  {
    "latitude": 38.22049235717298,
    "longitude": -104.92181910642884,
    "title": "35485f5d-d7e2-4bf8-a894-62e6ecca7ada"
  },
  {
    "latitude": 46.72197889413983,
    "longitude": -112.01990851114655,
    "title": "bddba9f9-38cf-414b-9cc6-28da8f62ec92"
  },
  {
    "latitude": 45.63566803005117,
    "longitude": -121.55854688968654,
    "title": "c9fdfeaf-0863-4212-8dff-1531cbbd15e9"
  },
  {
    "latitude": 45.20102273911849,
    "longitude": -123.72260362031473,
    "title": "8d17459f-9b61-404d-a067-6a9bf99aeafc"
  },
  {
    "latitude": 37.0325,
    "longitude": -119.45166666666667,
    "title": "62cf7b9b-63b1-4845-831b-c8d3a47d9bbc"
  },
  {
    "latitude": 45.3936605,
    "longitude": -122.25664057,
    "title": "91d6ad87-07c4-463d-96b3-17ea7f2c10a5"
  },
  {
    "latitude": 33.39324145093634,
    "longitude": -83.38570576763831,
    "title": "8e2f6bc3-ca32-412c-b1d3-af4d9d3daaf1"
  },
  {
    "latitude": 30.35299,
    "longitude": -94.36969,
    "title": "2773d781-b0b0-4b1d-9450-b28c4c470712"
  },
  {
    "latitude": 34.247333,
    "longitude": -112.3565,
    "title": "5c80f7c7-1fa8-418a-b6e3-412f3b07d5a5"
  },
  {
    "latitude": 44.15693878,
    "longitude": -121.27624051,
    "title": "a3cd0d25-1736-414d-bb60-7885183d3e79"
  },
  {
    "latitude": 36.043,
    "longitude": -106.0115,
    "title": "8656e0b5-6331-42ad-8d28-3cdc1280f7f8"
  },
  {
    "latitude": 48.4263201601505,
    "longitude": -122.12677441011063,
    "title": "d335658b-ab4a-4600-9a02-65e9e2619ca3"
  },
  {
    "latitude": 38.203415377101294,
    "longitude": -112.46537678885502,
    "title": "0ab965c7-1aa2-47b3-a7b5-ace7f725b259"
  },
  {
    "latitude": 45.31121767072042,
    "longitude": -96.56451048498266,
    "title": "b5890301-8907-4faa-b37e-1e01016085ad"
  },
  {
    "latitude": 43.70177997270373,
    "longitude": -121.12906271466976,
    "title": "7791e7cb-74d8-4e50-b593-80162424b5a6"
  },
  {
    "latitude": 40.315666666666665,
    "longitude": -122.04633333333334,
    "title": "0aae3ddc-815b-4a27-a095-dc416d6b6dac"
  },
  {
    "latitude": 34.79832884928781,
    "longitude": -97.9457352375039,
    "title": "3c475172-f26c-4a60-891d-56aa3ba96b51"
  },
  {
    "latitude": 35.8870179367353,
    "longitude": -106.39852623140112,
    "title": "01731b0a-c4a3-4c65-8dbf-c61d990f68cb"
  },
  {
    "latitude": 46.9246602,
    "longitude": -114.0907447,
    "title": "455382d3-79b0-4916-90d5-4299fe3745b6"
  },
  {
    "latitude": 48.3953477883011,
    "longitude": -115.55050218134485,
    "title": "847f59ec-48c8-4b69-82e5-a454c5b88029"
  },
  {
    "latitude": 48.44152032593991,
    "longitude": -122.62416853856934,
    "title": "e3190ffc-1e0e-4495-987e-72b3d9ca2acd"
  },
  {
    "latitude": 38.089417,
    "longitude": -105.038717,
    "title": "11fb2052-8e39-4de8-9586-a8be03ca4d68"
  },
  {
    "latitude": 43.39127915304784,
    "longitude": -103.24632354830831,
    "title": "9d44f9ad-4dfa-41b6-a81c-fdb6bfda1d52"
  },
  {
    "latitude": 39.90762929,
    "longitude": -120.74238854,
    "title": "9bb1816e-1f68-498c-b208-79d376fc00dd"
  },
  {
    "latitude": 46.4532609,
    "longitude": -90.16247466,
    "title": "5d425aea-b783-488e-93eb-6ad7dbd3985e"
  },
  {
    "latitude": 43.0293176,
    "longitude": -87.91257928,
    "title": "0d40c771-5810-40f3-b72b-e97886f69e92"
  },
  {
    "latitude": 47.19741805387751,
    "longitude": -120.95446422350379,
    "title": "0c441b87-6ecc-4a07-85be-a0885b8bb399"
  },
  {
    "latitude": 34.31769732027553,
    "longitude": -119.28059865482531,
    "title": "9abc9d38-52e1-45b1-b09c-7fa85ccafc48"
  },
  {
    "latitude": 39.99373014,
    "longitude": -82.09292059,
    "title": "a7b67428-1fc8-49dc-8898-89f5e5661354"
  },
  {
    "latitude": 43.77342627,
    "longitude": -103.57498896,
    "title": "ba1afff9-5009-4114-adba-ed56454a4b1a"
  },
  {
    "latitude": 33.90584,
    "longitude": -118.3703,
    "title": "0cd8d9df-cc2b-4a0f-a5df-d8c1c45554d6"
  },
  {
    "latitude": 27.132222,
    "longitude": -80.970833,
    "title": "4ee6ac01-cbad-43f6-bf93-6a529078136c"
  },
  {
    "latitude": 45.46085640506098,
    "longitude": -117.17161960186652,
    "title": "e1850a06-ad1a-4f5a-8ab9-a02abc4e6a68"
  },
  {
    "latitude": 44.26129035,
    "longitude": -121.19883308,
    "title": "2c9ec747-10f1-4fd9-8c0c-102a8053e2d7"
  },
  {
    "latitude": 46.99441285444561,
    "longitude": -114.46044587313877,
    "title": "142ba01a-90fc-46ad-adde-8281844f29e1"
  },
  {
    "latitude": 46.86170954261644,
    "longitude": -114.02542255829462,
    "title": "4cb9608d-305a-4761-b5be-68173a750d4f"
  },
  {
    "latitude": 43.02935468,
    "longitude": -87.91250425,
    "title": "38648de0-6307-4422-9b85-ca91cb7d25ba"
  },
  {
    "latitude": 45.45532835,
    "longitude": -121.12385174,
    "title": "4901c854-9e66-4f92-ba56-ac5d4d79f70c"
  },
  {
    "latitude": 43.02936495,
    "longitude": -87.91250186,
    "title": "f559b4dd-5a2e-4d84-9d13-b22169a3467c"
  },
  {
    "latitude": 45.904094224344014,
    "longitude": -111.7489220486545,
    "title": "e932a955-acc8-4e1a-9cfa-23a8c69a420a"
  },
  {
    "latitude": 48.23643733,
    "longitude": -114.35098592,
    "title": "abe609b0-e5a3-49f3-aaca-0f261afefe87"
  },
  {
    "latitude": 61.6056915,
    "longitude": -149.0924334,
    "title": "01af1150-35d1-4cb4-900c-4159f25dcba0"
  },
  {
    "latitude": 48.14327609264119,
    "longitude": -114.71671314920738,
    "title": "48d6a17b-2007-49c8-bdbb-ced38105ed7e"
  },
  {
    "latitude": 34.65242,
    "longitude": -117.13503,
    "title": "a272301d-4bb0-4844-81d5-ace9e6250a43"
  },
  {
    "latitude": 47.53742805904457,
    "longitude": -115.92982423906409,
    "title": "37929c81-887e-43d8-b649-49109bafed42"
  },
  {
    "latitude": 37.611358642578125,
    "longitude": -114.52735857990503,
    "title": "39934db7-e551-4133-98c8-fa6f5ad5ebee"
  },
  {
    "latitude": 40.486521659920065,
    "longitude": -121.90629149491018,
    "title": "18e8a7d1-52e2-4449-979e-68450944c9ba"
  },
  {
    "latitude": 29.691121557141482,
    "longitude": -95.31450123729687,
    "title": "1e317698-1da6-465b-9435-d1357e6f78b5"
  },
  {
    "latitude": 37.11867666666667,
    "longitude": -104.52229166666666,
    "title": "1871adf9-1644-4280-ab79-e48b190d5007"
  },
  {
    "latitude": 36.864583,
    "longitude": -119.10255,
    "title": "fbb39587-c5a4-464f-a697-87ad3325b317"
  },
  {
    "latitude": 34.04643863,
    "longitude": -117.21312553,
    "title": "c29d8fbb-150b-4f88-ba66-e8d010d6d8d2"
  },
  {
    "latitude": 39.592929594035546,
    "longitude": -74.69902575786396,
    "title": "ed2d37db-da9f-42ae-ac78-66d7f4cccfa0"
  },
  {
    "latitude": 44.17413752,
    "longitude": -104.65075947,
    "title": "782d9892-982c-4b2e-98e7-a43cd70d0f82"
  },
  {
    "latitude": 34.17159409731093,
    "longitude": -87.40082798533832,
    "title": "1d3063f9-1a4b-43aa-84f9-5153d655c131"
  },
  {
    "latitude": 38.68973755230037,
    "longitude": -119.79666588330657,
    "title": "d158ca45-224a-4fa0-8a50-4c6f826b15d8"
  },
  {
    "latitude": 43.02937787,
    "longitude": -87.91244684,
    "title": "4b7cf037-5940-44c0-bbf4-d158d687e91f"
  },
  {
    "latitude": 34.372598333333336,
    "longitude": -117.28203666666668,
    "title": "a6937403-61d6-4547-b324-7b8c0af3d3b9"
  },
  {
    "latitude": 46.53264,
    "longitude": -116.75343,
    "title": "ae094e69-fcc8-4ac5-bb68-c78a455b198e"
  },
  {
    "latitude": 42.138211337688496,
    "longitude": -122.62340871078916,
    "title": "c996d230-36ea-4691-818f-b5910ffe5d7d"
  },
  {
    "latitude": 44.219053413996676,
    "longitude": -114.91886466741653,
    "title": "3e62a17e-5230-40ae-a1d5-e188da60f26a"
  },
  {
    "latitude": 37.05466666666667,
    "longitude": -122.1155,
    "title": "d5a8fea0-dff2-4f6a-8a93-443660f58add"
  },
  {
    "latitude": 38.006186848541866,
    "longitude": -122.49436634604119,
    "title": "2cc0bd84-f5bb-4800-838b-5f4f02eb502c"
  },
  {
    "latitude": 43.6467,
    "longitude": -121.477533,
    "title": "e595e288-1875-4ca2-94e2-2c8e6a0a57bb"
  },
  {
    "latitude": 46.93356869942046,
    "longitude": -116.90046081964364,
    "title": "02d92f43-c980-484e-8f87-5355e7a21a4b"
  },
  {
    "latitude": 40.640279674009086,
    "longitude": -116.94345507781668,
    "title": "acfa434b-ba07-4aa1-a306-88b5d2a82c51"
  },
  {
    "latitude": 29.497253495537407,
    "longitude": -97.87617995939218,
    "title": "67ce3209-c6fe-42e5-9dbe-ab3c7b400304"
  },
  {
    "latitude": 33.988280494053775,
    "longitude": -84.09579318522007,
    "title": "82f579e2-89c1-4843-b5c5-be2885900131"
  },
  {
    "latitude": 35.52104385,
    "longitude": -105.04755676,
    "title": "f541b9d8-e03b-4857-b84c-92ef52a539dd"
  },
  {
    "latitude": 48.182553,
    "longitude": -120.530919,
    "title": "679dd8c8-7545-444f-a19c-834b1a70a04e"
  },
  {
    "latitude": 41.12749166786671,
    "longitude": -100.76314134523273,
    "title": "8ba09495-9859-481a-b085-b4904275160d"
  },
  {
    "latitude": 37.94499341,
    "longitude": -122.34346856,
    "title": "8b54d32a-592a-4371-86ec-fcacbceb2301"
  },
  {
    "latitude": 46.560382555653845,
    "longitude": -116.2006921196117,
    "title": "f27126b2-a8cb-48c9-9279-cac3bc12e366"
  },
  {
    "latitude": 37.845243506863,
    "longitude": -79.40451941978606,
    "title": "ddcfa8ad-253e-46f1-907a-8dcdbf60e6aa"
  },
  {
    "latitude": 43.096225624348854,
    "longitude": -88.94684177296637,
    "title": "71acbbda-de42-4d2c-bafd-bace8be69b4a"
  },
  {
    "latitude": 33.34239263901977,
    "longitude": -105.69417756757886,
    "title": "c472363c-c711-4bd6-954c-8c90b678db81"
  },
  {
    "latitude": 45.080161047515695,
    "longitude": -122.04779913919715,
    "title": "830ccded-3ef2-4159-9cb6-4ddad2cd4c26"
  },
  {
    "latitude": 44.183178674471044,
    "longitude": -123.34047571767434,
    "title": "c911716c-8c0e-4ab5-a752-c563a41c445d"
  },
  {
    "latitude": 46.5129316,
    "longitude": -114.0920331,
    "title": "2c2bc534-17b9-4a92-ad96-1aec54efa9b2"
  },
  {
    "latitude": 46.001135101400635,
    "longitude": -121.5111595582128,
    "title": "cc6ba219-ed96-44a9-a286-a31adb5be0f6"
  },
  {
    "latitude": 46.956229609525366,
    "longitude": -112.65594305182144,
    "title": "2f946556-7705-4072-9f24-fe18a3937c06"
  },
  {
    "latitude": 45.681167,
    "longitude": -121.457306,
    "title": "545b7c6e-68d7-4a0a-94b0-cbc591fbdb27"
  },
  {
    "latitude": 41.30088717,
    "longitude": -74.75847625,
    "title": "306a1680-8fba-4cf7-8e11-aa1cdfdd8d35"
  },
  {
    "latitude": 44.9565948914612,
    "longitude": -120.77978165521156,
    "title": "c484f47f-3a34-4b58-aadd-85a7c6e6d10e"
  },
  {
    "latitude": 64.364833,
    "longitude": -147.107167,
    "title": "ab8dd4e7-ba95-4943-8b28-2e20c2786447"
  },
  {
    "latitude": 33.372839609180765,
    "longitude": -110.45769501786872,
    "title": "02518ea2-b0d2-452f-a053-ca68edca5aad"
  },
  {
    "latitude": 45.9749840786349,
    "longitude": -118.397922457865,
    "title": "6715971a-675a-45ca-8cda-56fb72341252"
  },
  {
    "latitude": 40.34960132822418,
    "longitude": -121.59152326573167,
    "title": "f1c31678-4285-4098-8aaa-2a31e83830af"
  },
  {
    "latitude": 46.62096353467617,
    "longitude": -116.21807406661081,
    "title": "ebdae101-4c66-4fd7-a3a7-22333cc8c755"
  },
  {
    "latitude": 38.21936211,
    "longitude": -104.89985538,
    "title": "296f2434-e996-4b13-b335-88fa4d9491c2"
  },
  {
    "latitude": 34.301917,
    "longitude": -117.590867,
    "title": "951345a6-e207-4581-b2c0-42101d942455"
  },
  {
    "latitude": 33.95288583214579,
    "longitude": -96.41292952085072,
    "title": "698f66ad-8ddb-4be6-9822-76b05d7f345b"
  },
  {
    "latitude": 43.57986394,
    "longitude": -109.8251808,
    "title": "ff6b2958-f3a6-4809-b75b-3a9782490513"
  },
  {
    "latitude": 44.547644,
    "longitude": -117.477149,
    "title": "4d88d677-a898-4736-8cf2-81730d51448c"
  },
  {
    "latitude": 48.55852839203717,
    "longitude": -122.4012758452861,
    "title": "73666fec-c06e-4f12-bf04-3a22b7f70f71"
  },
  {
    "latitude": 37.20858631688302,
    "longitude": -112.98217670136584,
    "title": "1f49cc0e-a3b0-4493-94f2-767ccefd5f71"
  },
  {
    "latitude": 36.18051661196124,
    "longitude": -86.39584168725666,
    "title": "3618beeb-133f-42ad-b2ef-9ddb3d85c3ed"
  },
  {
    "latitude": 40.253283982265664,
    "longitude": -121.77171284292318,
    "title": "a587ff24-2f95-4243-a696-2e8dcbbcd71f"
  },
  {
    "latitude": 46.88703662853884,
    "longitude": -114.0477799710793,
    "title": "0c0a91ae-9bfa-4415-9c97-cc7386517ba5"
  },
  {
    "latitude": 31.410295223543738,
    "longitude": -94.51736482235049,
    "title": "cc7b673d-09f7-4a96-8926-fb5fe4c4aa95"
  },
  {
    "latitude": 44.58670837494025,
    "longitude": -104.54354908526808,
    "title": "a93ed798-ab1a-43b9-be03-c518f3ca8367"
  },
  {
    "latitude": 44.25998115483655,
    "longitude": -105.00836724923734,
    "title": "05c2888b-63da-4049-b4ea-3145aa97fb9b"
  },
  {
    "latitude": 34.786833,
    "longitude": -120.052,
    "title": "7f62e408-66c6-494c-8cb3-119491aacb5a"
  },
  {
    "latitude": 36.46840626074321,
    "longitude": -118.8566885976491,
    "title": "befac8b4-0819-43b1-8e96-918c2ac491a4"
  },
  {
    "latitude": 44.2383,
    "longitude": -122.247917,
    "title": "b76551a7-75f1-4d61-906a-0ab808b549a3"
  },
  {
    "latitude": 45.16322109386805,
    "longitude": -109.28120685751483,
    "title": "937715e5-78fe-4da9-af3c-69d3d64d1a92"
  },
  {
    "latitude": 38.45000451082643,
    "longitude": -120.61173085794928,
    "title": "05b85d79-2d0c-4ade-ae68-a5ddc303977d"
  },
  {
    "latitude": 44.86328974,
    "longitude": -116.15119039,
    "title": "37b46f66-0617-4611-aca9-e782f5531b8a"
  },
  {
    "latitude": 65.22340893715123,
    "longitude": -148.2774064351274,
    "title": "cb4b0ae2-24a8-4060-9220-ad54b4aac114"
  },
  {
    "latitude": 38.36024963423602,
    "longitude": -112.84102092015601,
    "title": "a7497044-c1c6-4c89-ac65-ac20205a00d2"
  },
  {
    "latitude": 46.95653814038914,
    "longitude": -112.65664606381905,
    "title": "9381a490-b14d-4900-80ba-961a17c4ef81"
  },
  {
    "latitude": 40.50962333333334,
    "longitude": -75.58962833333334,
    "title": "b9d65b00-828c-42bd-ae22-0e85d44dd00d"
  },
  {
    "latitude": 39.2393,
    "longitude": -120.4168,
    "title": "21f27d77-8557-4307-880e-c3873515fd5c"
  },
  {
    "latitude": 41.88864798726536,
    "longitude": -115.4333759820995,
    "title": "fed19f7d-0013-4495-8500-0399c644099e"
  },
  {
    "latitude": 35.1242474396868,
    "longitude": -106.54030939295431,
    "title": "4b839c5d-135d-4c6c-9c06-4deffbc576ba"
  },
  {
    "latitude": 40.39811998,
    "longitude": -105.06325647,
    "title": "f3ad8f7a-5608-4b94-8740-2d0d54bc6a11"
  },
  {
    "latitude": 47.8809321,
    "longitude": -120.14920957,
    "title": "4b67f272-4a7d-4baf-9f6d-664c8b5b9002"
  },
  {
    "latitude": 46.407227916686516,
    "longitude": -116.80585398349614,
    "title": "35bc9d69-8f94-4772-81a1-99801784b7bb"
  },
  {
    "latitude": 46.915112114245446,
    "longitude": -112.74115276637556,
    "title": "6159045c-949e-4af1-9fc1-cc74785642c5"
  },
  {
    "latitude": 40.65077254022773,
    "longitude": -122.59308486758701,
    "title": "9a8b0299-a740-474f-abc4-4067e16eaeb6"
  },
  {
    "latitude": 44.18226775,
    "longitude": -122.08761722,
    "title": "6f5fa787-3f9a-40a9-b05a-10d159f3645d"
  },
  {
    "latitude": 34.55413188801607,
    "longitude": -118.65755617307727,
    "title": "1db4f70b-f096-4779-9449-a25129f557b3"
  },
  {
    "latitude": 45.215373,
    "longitude": -112.056942,
    "title": "580d8e2e-3259-44b3-87b2-d7b52ef9e0f7"
  },
  {
    "latitude": 40.01621614721956,
    "longitude": -105.23468630046045,
    "title": "d23df29f-bf6e-43ec-a42f-13aec4566291"
  },
  {
    "latitude": 46.73488281784602,
    "longitude": -113.87855690191189,
    "title": "5021ad71-4797-4db5-93d8-2c5bfc2160b4"
  },
  {
    "latitude": 45.68075758226079,
    "longitude": -116.27772689853967,
    "title": "6694455e-ea4f-4900-81a3-379b01304914"
  },
  {
    "latitude": 48.42624966418452,
    "longitude": -120.14476084468649,
    "title": "7b06e20d-1a0c-4d27-b5b5-6bb594e55625"
  },
  {
    "latitude": 47.834802466734445,
    "longitude": -118.43314096736603,
    "title": "032b36e7-d110-44a0-a91d-d9988ce02763"
  },
  {
    "latitude": 45.122331296351426,
    "longitude": -116.6700812082651,
    "title": "851129f2-0173-4a4b-934c-0c1ad0cfe738"
  },
  {
    "latitude": 35.17238231,
    "longitude": -97.2506336,
    "title": "8a88bad2-4db9-4605-b5cc-8c7b1b6192af"
  },
  {
    "latitude": 37.606424107922244,
    "longitude": -112.47453369347457,
    "title": "1473f54c-97ea-4857-ba15-fe571b6497d9"
  },
  {
    "latitude": 33.57321258637463,
    "longitude": -117.73298718977509,
    "title": "5d62ad5d-6c73-4c7d-8c6e-944f4ad4e173"
  },
  {
    "latitude": 37.10521942090933,
    "longitude": -121.59878795675465,
    "title": "807e896e-3c19-43f2-b68e-20525d1782c0"
  },
  {
    "latitude": 37.69332242508151,
    "longitude": -122.4508885464554,
    "title": "14e655cc-1308-4780-b945-40e0ca2e53f4"
  },
  {
    "latitude": 46.8584202747652,
    "longitude": -114.051628028824,
    "title": "b4652786-54b7-4984-899f-bffc872c3814"
  },
  {
    "latitude": 35.04867,
    "longitude": -113.4425,
    "title": "6e8e3eba-8460-4508-bc08-057cfb89d96b"
  },
  {
    "latitude": 37.176808756185586,
    "longitude": -121.99216794740508,
    "title": "82881ccd-8ba0-4b8d-9fc6-73d50ed0c567"
  },
  {
    "latitude": 44.702617,
    "longitude": -113.7422,
    "title": "d4e45dd5-c4df-4765-a1ea-9aaff0a5f07b"
  },
  {
    "latitude": 47.3530556,
    "longitude": -113.6655556,
    "title": "3075c0d3-1ccb-4449-851a-385d9b31a160"
  },
  {
    "latitude": 40.80346642,
    "longitude": -75.60170219,
    "title": "acb39aad-a533-469d-b7a9-7f25cca780b6"
  },
  {
    "latitude": 43.77349288,
    "longitude": -103.57485017,
    "title": "8aff912e-16f2-4f09-917b-3fbc7ddcb196"
  },
  {
    "latitude": 21.2949931,
    "longitude": -157.8515367,
    "title": "dd4b306d-7a2e-45b5-a8c2-77105194dd6c"
  },
  {
    "latitude": 47.1419444,
    "longitude": -113.9669444,
    "title": "081985dc-1156-4c36-9950-530105d5e4f9"
  },
  {
    "latitude": 41.71204792,
    "longitude": -122.63168741,
    "title": "454241c4-7708-443c-9c18-60353b2db3d4"
  },
  {
    "latitude": 42.745917,
    "longitude": -124.343733,
    "title": "4e339de3-d3d3-48de-96fa-23a89a02e93d"
  },
  {
    "latitude": 40.00633587,
    "longitude": -105.47228142,
    "title": "546a5fd2-8e2b-4e82-bc9c-d9e9f0a800f7"
  },
  {
    "latitude": 45.74322302790421,
    "longitude": -111.00986472182515,
    "title": "21b549de-96a1-44f3-84a1-8db9a2ae49b6"
  },
  {
    "latitude": 36.98190143954414,
    "longitude": -121.9664035634372,
    "title": "bb3e2bf3-8948-49ea-96bb-261578378bc4"
  },
  {
    "latitude": 46.92617659,
    "longitude": -114.09242507,
    "title": "6f82ea1d-2ada-49af-83ab-e9ac7cff007a"
  },
  {
    "latitude": 42.36156716,
    "longitude": -122.87474708,
    "title": "9accbf0f-979a-4349-88a8-d05af6bd0713"
  },
  {
    "latitude": 20.778353524397616,
    "longitude": -156.43638010260554,
    "title": "f1e8a36a-90d1-464d-bb50-6b9fd5b35df1"
  },
  {
    "latitude": 42.5158333,
    "longitude": -124.0372222,
    "title": "3554064a-c63d-4633-b9a1-9a5c6562674e"
  },
  {
    "latitude": 44.259979248046875,
    "longitude": -105.00836724923734,
    "title": "91452362-8700-40e2-b533-8f953e4db7eb"
  },
  {
    "latitude": 47.8236111,
    "longitude": -116.6138889,
    "title": "91e8a781-ae65-4433-ad3a-ffad785572f0"
  },
  {
    "latitude": 33.01224073784939,
    "longitude": -117.03531486076153,
    "title": "976bdeb2-2015-46f2-acd0-609dd7c196df"
  },
  {
    "latitude": 37.314125723623555,
    "longitude": -122.19185338544344,
    "title": "4634ab56-3a98-464d-809c-a7cdc90761d8"
  },
  {
    "latitude": 44.2219444,
    "longitude": -122.1458333,
    "title": "5fafcba6-ae81-4320-b724-1b6a2347f63a"
  },
  {
    "latitude": 39.57972461494798,
    "longitude": -104.83787174003636,
    "title": "5ea2a461-0bcb-446d-9a9a-d6a09efa1277"
  },
  {
    "latitude": 39.64127316489612,
    "longitude": -77.72140680319316,
    "title": "832ebae9-1c09-4e27-bfba-4a321585ca3c"
  },
  {
    "latitude": 33.00531471339346,
    "longitude": -116.61151782201476,
    "title": "6e48086c-9fe8-4e0f-88cd-d1c91f82cb5b"
  },
  {
    "latitude": 37.90097422188427,
    "longitude": -119.35079493787744,
    "title": "fea0eee3-847b-49e5-9ff5-2f17cb1bc462"
  },
  {
    "latitude": 21.302310180741515,
    "longitude": -157.83260429094432,
    "title": "f3b4a5b1-bd8a-4e73-a75d-f1f4c390c75e"
  },
  {
    "latitude": 40.55932276708508,
    "longitude": -105.08584081494784,
    "title": "73d48156-b825-4986-8726-6f3325cdfb8f"
  },
  {
    "latitude": 39.444179347130806,
    "longitude": -123.80959796874227,
    "title": "249a76e6-5011-48a6-87b1-cb8e88d9d5e5"
  },
  {
    "latitude": 38.85849286855101,
    "longitude": -92.55340145389854,
    "title": "facff484-381b-43b5-bc5a-2a77347ce8d5"
  },
  {
    "latitude": 37.92708679258533,
    "longitude": -121.07663464546204,
    "title": "0d601bda-c79b-430a-a955-533e671f89a0"
  },
  {
    "latitude": 39.64456616344932,
    "longitude": -104.44763490556862,
    "title": "124b5633-85f4-4461-824c-1b6cf2213833"
  },
  {
    "latitude": 42.745917,
    "longitude": -124.343733,
    "title": "82d09d2a-d325-4a1d-b427-3fc6bcfd3af6"
  },
  {
    "latitude": 30.569118168091254,
    "longitude": -84.22141772718558,
    "title": "9929b687-5d56-42c7-aac5-f1a732f1ec3b"
  },
  {
    "latitude": 37.411662018857896,
    "longitude": -102.62663028202951,
    "title": "c51618c2-7dc3-485d-9c46-b40ab7009954"
  },
  {
    "latitude": 40.13952573592072,
    "longitude": -105.03643072172098,
    "title": "6db2c05e-2a0b-4f4d-9d72-c65de7a6f022"
  },
  {
    "latitude": 40.55932276708508,
    "longitude": -105.08584081494784,
    "title": "80764c94-d53e-46cf-9875-aa244c4d8dc5"
  },
  {
    "latitude": 47.1419444,
    "longitude": -113.9669444,
    "title": "b01a734b-1e55-4b55-a1cd-c428b0dc2eb9"
  },
  {
    "latitude": 39.666502608303475,
    "longitude": -104.57557594811566,
    "title": "81113297-8ad9-4919-bafb-65a2a5a5ea58"
  },
  {
    "latitude": 47.849708210329375,
    "longitude": -92.69055408165383,
    "title": "2fa1feff-a4ef-4651-a536-580d994b8360"
  },
  {
    "latitude": 39.76355762,
    "longitude": -105.22262372,
    "title": "595d3339-b952-4dea-aa04-d287c5838c2c"
  },
  {
    "latitude": 29.6500182,
    "longitude": -82.3332507,
    "title": "a622a2fb-da8c-4f9c-a2ed-43f77cf35e4c"
  },
  {
    "latitude": 40.52568531251356,
    "longitude": -106.02570741554769,
    "title": "62981bea-e440-4b57-84ed-785193ea4737"
  },
  {
    "latitude": 39.31763849,
    "longitude": -120.14585679,
    "title": "54f50e8f-19ac-4da0-93df-41e6cce2c72e"
  },
  {
    "latitude": 37.39612163253485,
    "longitude": -101.50377743474954,
    "title": "3e6f572e-bd9b-4daf-8025-f333bb6b8761"
  },
  {
    "latitude": 40.9361111,
    "longitude": -122.9272222,
    "title": "6b7bf526-7d2a-4096-a8da-d451361b4b26"
  },
  {
    "latitude": 43.3725,
    "longitude": -123.5869444,
    "title": "47a52bb8-df73-4f94-84a8-1ebc1896e6eb"
  },
  {
    "latitude": 41.12756436,
    "longitude": -100.7631393,
    "title": "d6488ad1-a86a-4b09-9886-1334e2e770cd"
  },
  {
    "latitude": 33.35077724523781,
    "longitude": -105.67620095940596,
    "title": "38e5c1b8-8079-478f-89e8-d5f7f7a2176e"
  },
  {
    "latitude": 40.721466871947925,
    "longitude": -105.41927573280913,
    "title": "61e3bb71-c4ff-4963-a06e-b387d0316961"
  },
  {
    "latitude": 42.7458333,
    "longitude": -124.3436111,
    "title": "d88215cc-3df1-471b-b5c1-203428fd6035"
  },
  {
    "latitude": 36.98834933280787,
    "longitude": -121.97274171437977,
    "title": "7c83244c-6f19-4553-8948-ef46cde03599"
  },
  {
    "latitude": 37.0691548328523,
    "longitude": -121.90348279231073,
    "title": "2b061295-a3bd-45e4-a88c-e2fb5662b348"
  },
  {
    "latitude": 39.692645782027846,
    "longitude": -105.27740938572504,
    "title": "8457288f-482d-4aeb-ad98-7062e655ba24"
  },
  {
    "latitude": 38.12774676071018,
    "longitude": -122.57592911875415,
    "title": "571820a2-3156-4b92-af9c-bf19df663a5a"
  },
  {
    "latitude": 33.173520177419434,
    "longitude": -116.75788786978488,
    "title": "47abb3e1-4f25-4886-b5b3-365ab1e86e5f"
  },
  {
    "latitude": 44.96002109885997,
    "longitude": -118.01240059118918,
    "title": "1d2e0f48-1f50-4056-b455-8a4a8e0394c7"
  },
  {
    "latitude": 33.80217162458493,
    "longitude": -85.42727531911865,
    "title": "cca625ce-3d91-41aa-9622-caf3da68538f"
  },
  {
    "latitude": 36.901766141597186,
    "longitude": -118.37571771731106,
    "title": "ba6b3759-0d70-4ef9-97cf-23b518afa7fb"
  },
  {
    "latitude": 46.65744717164247,
    "longitude": -120.62427150075413,
    "title": "89143ba0-f44d-4a3b-9ddb-da716d9867ae"
  },
  {
    "latitude": 34.18534066855228,
    "longitude": -117.18087716551945,
    "title": "168840e8-ec07-4b2c-9758-5513a818acd7"
  },
  {
    "latitude": 45.77155617905968,
    "longitude": -114.07711520821901,
    "title": "a766eb92-4f10-45db-ad4c-f20658992846"
  },
  {
    "latitude": 47.3725077910037,
    "longitude": -120.34097826525111,
    "title": "a7c36534-c07e-4952-8abe-0f3314bb9bd2"
  },
  {
    "latitude": 40.60119906551258,
    "longitude": -121.92464534769388,
    "title": "31fc56bc-ee27-42ce-a804-bdf12f497910"
  },
  {
    "latitude": 37.05387309164173,
    "longitude": -121.79800706316826,
    "title": "cc1ae876-d9f1-49fd-a39b-0069881073ce"
  },
  {
    "latitude": 45.29348698008703,
    "longitude": -96.46548859639807,
    "title": "73462cec-44a5-423b-b5b9-f81f8adf6fd4"
  },
  {
    "latitude": 38.04206202969121,
    "longitude": -99.33605945446739,
    "title": "51afc1e4-53ee-4b5a-b92c-ee6b279ac506"
  },
  {
    "latitude": 46.87120317,
    "longitude": -113.93857509,
    "title": "d0818e38-6a0e-4100-95f6-fcc5c5924ae6"
  },
  {
    "latitude": 39.8919357732625,
    "longitude": -105.48153699834643,
    "title": "db6b1205-f84c-424a-a2ab-914abf0952cd"
  },
  {
    "latitude": 38.23582612494273,
    "longitude": -101.52909368605026,
    "title": "b7cc1c13-468f-449f-a1a6-e4a55997a71c"
  },
  {
    "latitude": 39.81206396951044,
    "longitude": -123.23544626585621,
    "title": "8176479d-745e-4517-a063-4f3523a83bcc"
  },
  {
    "latitude": 37.66428901282217,
    "longitude": -119.86672318453532,
    "title": "96784466-6e8e-433a-a71d-1d43ba849291"
  },
  {
    "latitude": 33.42756553789364,
    "longitude": -117.32088981891066,
    "title": "9b579dcb-3236-47e5-bb90-1803ba313766"
  },
  {
    "latitude": 39.43405559,
    "longitude": -99.27775691,
    "title": "5a483c8e-62cf-4de8-bb5e-74c4dfa05330"
  },
  {
    "latitude": 44.62457303,
    "longitude": -121.13021797,
    "title": "92968d3e-cb57-43a6-9bc9-dec2cf6b235b"
  },
  {
    "latitude": 37.67651836112288,
    "longitude": -120.61496376504596,
    "title": "7a158345-582b-4e68-907c-0babe6c92a40"
  },
  {
    "latitude": 31.011164671542993,
    "longitude": -92.98648641350306,
    "title": "0ec5fb76-43b5-4ae9-9891-6189181b1f09"
  },
  {
    "latitude": 38.66870611675038,
    "longitude": -122.62819812520814,
    "title": "04463f6f-0e72-4c8b-83a5-f5c946dfe1f3"
  },
  {
    "latitude": 47.21863385002671,
    "longitude": -120.72473356746794,
    "title": "191a8cea-edc7-40c9-a7b9-3c2825846e52"
  },
  {
    "latitude": 43.46358310155466,
    "longitude": -96.43686836951558,
    "title": "a7018844-0b0f-40dd-9d34-4a5f6710174b"
  },
  {
    "latitude": 41.8586111,
    "longitude": -123.8338889,
    "title": "db31ed51-4c34-4a3b-a546-a5b18e2f28b1"
  },
  {
    "latitude": 39.319083716248294,
    "longitude": -105.7515046255539,
    "title": "0b943914-6fb1-4faf-9652-cfc175e715bf"
  },
  {
    "latitude": 47.04854844,
    "longitude": -114.26876417,
    "title": "557d1f92-5319-43df-9e1c-09f0979efd3f"
  },
  {
    "latitude": 38.660703351584935,
    "longitude": -106.25012494984838,
    "title": "8a79eb6d-bf4c-476a-af77-1ba593a3dbe8"
  },
  {
    "latitude": 40.77204739,
    "longitude": -111.90103405,
    "title": "23edb32d-c43c-48c1-8bd9-11a884faabc2"
  },
  {
    "latitude": 39.80726108582366,
    "longitude": -96.02461582067099,
    "title": "aef209e0-4dfb-43d9-8048-d0b42a3a3b4f"
  },
  {
    "latitude": 47.41463246280834,
    "longitude": -120.31425925519767,
    "title": "696eb4de-ed47-4688-8456-950392db003a"
  },
  {
    "latitude": 41.94128333333333,
    "longitude": -88.13332833333334,
    "title": "f81ccb99-07b7-4e59-a331-d84b1cc9b41e"
  },
  {
    "latitude": 39.90771698353113,
    "longitude": -105.44861662978545,
    "title": "a65e6d9c-8ff6-4519-b808-a1748b2b1a59"
  },
  {
    "latitude": 32.83421729556937,
    "longitude": -97.98506627628423,
    "title": "2229cf50-0db8-4365-974a-0bdeaf6733ec"
  },
  {
    "latitude": 40.74562303612788,
    "longitude": -112.65285969415203,
    "title": "15553529-05ac-4cdb-a782-670871416f31"
  },
  {
    "latitude": 38.48216635796433,
    "longitude": -107.87298524094075,
    "title": "5f614567-6988-4b23-8c15-cb94dcc83442"
  },
  {
    "latitude": 37.939644258013566,
    "longitude": -122.5747746330756,
    "title": "492ba07c-6bd6-45ac-a452-0de54a67eb8e"
  },
  {
    "latitude": 40.43892568943666,
    "longitude": -105.989237715907,
    "title": "16ced0d8-c3de-4924-bcc8-bb5649f9dc90"
  },
  {
    "latitude": 34.0900762,
    "longitude": -117.260616,
    "title": "d4b1c439-30c7-4912-a69f-9d56cbb64fae"
  },
  {
    "latitude": 38.98219884796255,
    "longitude": -123.08320621089842,
    "title": "f330222d-27a6-49d3-a274-3ddc184301d4"
  },
  {
    "latitude": 39.18676983632085,
    "longitude": -95.87160696595807,
    "title": "bae6d5f5-5e9c-481e-aa5f-354ab1a962ef"
  },
  {
    "latitude": 33.42800000000018,
    "longitude": -117.11860999999998,
    "title": "aab630e1-5d69-429d-bfcc-1b9291cfd5c1"
  },
  {
    "latitude": 33.7077845034805,
    "longitude": -116.71924801068575,
    "title": "1b152934-5a5b-45c0-b30a-56d4501acab1"
  },
  {
    "latitude": 40.3158662924485,
    "longitude": -105.7420322774288,
    "title": "9a5b4e66-936f-4116-af78-b5fdd933e8d5"
  },
  {
    "latitude": 37.38885,
    "longitude": -83.74088,
    "title": "6adfb8a8-f749-4b37-8d84-cc64afca1bad"
  },
  {
    "latitude": 48.39611616810934,
    "longitude": -117.46084916487001,
    "title": "3541a3c9-7e57-439d-b78a-d4297e877167"
  },
  {
    "latitude": 38.17521693245791,
    "longitude": -120.82753279549974,
    "title": "d61c5cef-b575-4e2c-81ff-4ded7b454bd5"
  },
  {
    "latitude": 36.82552715,
    "longitude": -84.8545635,
    "title": "e2cba030-e86a-42d4-a15f-6b7e1e2ff52a"
  },
  {
    "latitude": 30.48734883536494,
    "longitude": -88.9832796580435,
    "title": "1c3ae987-b09b-40ae-9ae7-f0ade9632244"
  },
  {
    "latitude": 33.35076659083572,
    "longitude": -105.67580870079729,
    "title": "e6359672-c6e4-4d2f-84cd-64ed801de96c"
  },
  {
    "latitude": 39.62147,
    "longitude": -106.08323833333334,
    "title": "ded324b8-0c1a-4fc2-abc4-cadfc0e13152"
  },
  {
    "latitude": 37.17766724361788,
    "longitude": -122.01875763329711,
    "title": "68992cdf-2244-43fa-b41b-2430dc997f51"
  },
  {
    "latitude": 39.4275,
    "longitude": -110.160167,
    "title": "b98f85ab-bb31-40da-a94f-7d517350e117"
  },
  {
    "latitude": 41.65938185999998,
    "longitude": -70.55633543999997,
    "title": "cafd3a2b-3fd0-44d3-91a0-594ef4611643"
  },
  {
    "latitude": 35.25018984,
    "longitude": -106.70059329,
    "title": "7f385efd-61f3-4cd1-be8e-10f0f598c954"
  },
  {
    "latitude": 35.60239873504885,
    "longitude": -97.53753441274728,
    "title": "1776315d-0145-4f7a-bd38-b6c31093a03d"
  },
  {
    "latitude": 36.2537584686691,
    "longitude": -120.23749488536416,
    "title": "2dc7a3c3-04ee-4dff-9b03-f7861ad2f4d9"
  },
  {
    "latitude": 39.45220039897519,
    "longitude": -99.41362547001161,
    "title": "574792e5-58f9-47d2-87b3-35c1bb23700d"
  },
  {
    "latitude": 45.4197957,
    "longitude": -122.54585317,
    "title": "6b4d911c-4e9b-492c-8d77-7309aaa27308"
  },
  {
    "latitude": 42.7458333,
    "longitude": -124.3436111,
    "title": "76c05802-3aa3-4455-9061-3382455e88eb"
  },
  {
    "latitude": 39.64911074839341,
    "longitude": -105.15686313943993,
    "title": "e2e72cdf-b67b-4980-8c1a-37051354f468"
  },
  {
    "latitude": 41.37,
    "longitude": -123.6308333,
    "title": "35220bc4-251e-423e-a16e-6c1c040cf04b"
  },
  {
    "latitude": 45.809088345453645,
    "longitude": -108.52234881302354,
    "title": "0ecece8b-e358-4a93-8f01-60756dccddf8"
  },
  {
    "latitude": 38.161137418485524,
    "longitude": -86.5865040004514,
    "title": "587fa343-3ad5-40fe-b9d8-12df6e90433c"
  },
  {
    "latitude": 37.98961877125235,
    "longitude": -122.12752910187758,
    "title": "fe158cfb-0c9d-4b02-a4d7-5e9591dfdf40"
  },
  {
    "latitude": 43.80129125260004,
    "longitude": -72.66736061540196,
    "title": "9cb52a07-c3b8-4d72-86ed-689140e6d136"
  },
  {
    "latitude": 41.75403574320016,
    "longitude": -77.27596327671242,
    "title": "3859a06a-954d-44e7-b035-465211669406"
  },
  {
    "latitude": 38.76562091,
    "longitude": -121.35190093,
    "title": "dfdcfa11-c996-49a9-9155-c8ff2927ed91"
  },
  {
    "latitude": 47.704367497835015,
    "longitude": -120.32574546597235,
    "title": "0866aee0-3d4e-44a4-94e1-86c7c2afed41"
  },
  {
    "latitude": 38.34729442309884,
    "longitude": -97.01910258442373,
    "title": "ccad5655-89a5-4f87-8bc3-5dee005354dd"
  },
  {
    "latitude": 38.615525518580135,
    "longitude": -95.2782867663496,
    "title": "1de36fe6-c847-440f-830e-7a3373d4dc8e"
  },
  {
    "latitude": 38.035391935560135,
    "longitude": -120.40038580923664,
    "title": "d405758b-4180-49c6-aad7-d978047e83b5"
  },
  {
    "latitude": 39.0212710675942,
    "longitude": -104.12256011095556,
    "title": "bd663a5a-8a6b-4fc7-8820-3a6c37c8b16b"
  },
  {
    "latitude": 31.942684598372892,
    "longitude": -102.18938365936587,
    "title": "af28f1ba-497d-487f-9103-cc65d5913ba1"
  },
  {
    "latitude": 39.56604410437537,
    "longitude": -97.65037980437887,
    "title": "c2847102-45f9-458f-84de-3c5c007b7769"
  },
  {
    "latitude": 38.93575659979942,
    "longitude": -95.22431553626244,
    "title": "368a28e9-2e31-4251-a96d-0b992700ad8f"
  },
  {
    "latitude": 38.6345411,
    "longitude": -94.94012265,
    "title": "68f4df4e-e31b-469f-83be-5bcf3575828c"
  },
  {
    "latitude": 37.13272818477451,
    "longitude": -122.06998769637417,
    "title": "c1b29c90-870f-411c-a850-ba475daeb853"
  },
  {
    "latitude": 41.130560213718034,
    "longitude": -122.19153334057374,
    "title": "7039f0e8-5ceb-4fd1-9f84-6a2f277dc3cb"
  },
  {
    "latitude": 40.17861790184895,
    "longitude": -122.52140033483633,
    "title": "ff5632a0-769d-4da5-a83a-ad596da1a4bf"
  },
  {
    "latitude": 33.55665096006801,
    "longitude": -116.67276997541488,
    "title": "967b667d-238a-4a43-a660-9ec1b0236153"
  },
  {
    "latitude": 28.55968380071843,
    "longitude": -82.43861977450389,
    "title": "efd6cff8-519c-4912-b256-2d00e83e935c"
  },
  {
    "latitude": 40.59238502061525,
    "longitude": -124.14759973046846,
    "title": "8f59e59e-b255-4d9d-a376-a12cc1129ac0"
  },
  {
    "latitude": 33.59420481278365,
    "longitude": -102.24717414127832,
    "title": "aec196f0-12b7-41e4-bbae-9042a49b5a21"
  },
  {
    "latitude": 40.05079842,
    "longitude": -105.24925173,
    "title": "393b264c-368f-4d72-8722-f740bfb0f3bb"
  },
  {
    "latitude": 46.61229816,
    "longitude": -111.98944547,
    "title": "699c380d-e659-4555-a8aa-f31d36494950"
  },
  {
    "latitude": 38.99550205,
    "longitude": -104.88012766,
    "title": "caafd4f8-8d17-42d2-bdd9-c460295f9e11"
  },
  {
    "latitude": 40.67345584,
    "longitude": -122.35729968,
    "title": "996239c5-2d6d-4dbf-af32-2bd85b5695ca"
  },
  {
    "latitude": 37.69703148160922,
    "longitude": -122.08060610084048,
    "title": "313b9a4a-880d-45e8-a855-6b6861195788"
  },
  {
    "latitude": 38.755009661421624,
    "longitude": -122.61677453805787,
    "title": "a0fab7b9-d02d-458f-b8c7-ea346b3a34e9"
  },
  {
    "latitude": 46.5790069767683,
    "longitude": -120.70714719384185,
    "title": "2271d80c-a044-4dfa-b804-de7a07665260"
  },
  {
    "latitude": 34.43989349532364,
    "longitude": -119.63291955191609,
    "title": "01662c6d-6b94-47c8-a7c8-1dbb05ce7a5f"
  },
  {
    "latitude": 41.71171537125268,
    "longitude": -70.55255526806167,
    "title": "a6d2c983-aab5-446e-8120-98e5de07371e"
  },
  {
    "latitude": 46.77681358970645,
    "longitude": -120.63460340398954,
    "title": "20298ea5-1622-4aa5-a173-8b75b7736df8"
  },
  {
    "latitude": 39.68686300270928,
    "longitude": -78.10990049301455,
    "title": "2d0c15be-086b-416e-bb53-282768613b8a"
  },
  {
    "latitude": 40.39544370541983,
    "longitude": -105.49778058662514,
    "title": "4a950f37-55cb-4f86-b519-5663f2396ab5"
  },
  {
    "latitude": 38.45287594718065,
    "longitude": -122.69189749145183,
    "title": "32742878-d32b-42ee-9b60-f1f9d5977a3b"
  },
  {
    "latitude": 38.666559753236925,
    "longitude": -122.63091177809478,
    "title": "053f52ad-9a95-438d-81f6-b3204b594b1f"
  },
  {
    "latitude": 44.08411792684668,
    "longitude": -104.06617656338541,
    "title": "c303c185-a472-4879-be39-936ce98f47bd"
  },
  {
    "latitude": 40.03199800724779,
    "longitude": -106.03919391370304,
    "title": "db54eca9-775b-4115-bb5b-35c8c94721dc"
  },
  {
    "latitude": 43.763678854871266,
    "longitude": -72.7774865846676,
    "title": "fdc893a4-27fa-4b4f-9b47-87a79a1dfe61"
  },
  {
    "latitude": 44.79643126,
    "longitude": -91.5381241,
    "title": "a1a08ab5-4c0d-4c75-92be-7666cd428756"
  },
  {
    "latitude": 40.64377988997479,
    "longitude": -112.30305005168107,
    "title": "3489e748-ec63-40b8-99e4-f7514fe9d79f"
  },
  {
    "latitude": 33.952999268704865,
    "longitude": -117.77881694780189,
    "title": "9e442f4a-7859-4140-8008-657a0e2866ab"
  },
  {
    "latitude": 37.83168043414263,
    "longitude": -122.22383157170299,
    "title": "547d2a64-55ca-4271-8ae7-fb8f2f0219da"
  },
  {
    "latitude": 43.18968690797266,
    "longitude": -123.46955577242333,
    "title": "55c9287b-ef31-49fb-bd66-034f0daa410d"
  },
  {
    "latitude": 47.597570610277266,
    "longitude": -120.6625152380398,
    "title": "3d4d52a5-cebe-450b-a8f2-9323e76ad7e6"
  },
  {
    "latitude": 38.88678959511191,
    "longitude": -104.82813599562492,
    "title": "2ac271b6-46b1-46ff-bdf5-616ee151b242"
  },
  {
    "latitude": 45.01585963935528,
    "longitude": -121.61907847333303,
    "title": "52a07ca1-8861-41f2-bbab-285baba57afe"
  },
  {
    "latitude": 38.45756310430467,
    "longitude": -122.68767296706265,
    "title": "966aa344-211e-4fed-b979-b2ed6fe4c147"
  },
  {
    "latitude": 47.21947158726238,
    "longitude": -93.52276491241406,
    "title": "5d7b1b60-462b-4d1f-b1a6-65760ddc1deb"
  },
  {
    "latitude": 37.884515206258115,
    "longitude": -122.27921094333468,
    "title": "c1f68b8b-ed9d-4058-9cc7-f7d6de9aa4ec"
  },
  {
    "latitude": 40.80346798,
    "longitude": -75.6017098,
    "title": "5ca950d7-1467-4e53-aa34-e5716448a68f"
  },
  {
    "latitude": 26.4725653,
    "longitude": -81.8449033,
    "title": "7a4e020c-8e7d-4afd-890d-455f04c8a700"
  },
  {
    "latitude": 35.0862297979118,
    "longitude": -106.26637802932112,
    "title": "1cfacf73-633c-4099-955b-605d48102e4f"
  },
  {
    "latitude": 47.67973852691919,
    "longitude": -117.10843806891675,
    "title": "f8e4d4e6-40b7-44a3-b04b-169637f67d26"
  },
  {
    "latitude": 47.80239176005125,
    "longitude": -122.37549461424351,
    "title": "4758481b-c355-4634-b1cd-b5c5df979662"
  },
  {
    "latitude": 41.681417,
    "longitude": -123.420217,
    "title": "c800de4e-53fa-4780-adb4-a20e2a6e0517"
  },
  {
    "latitude": 40.493857601853,
    "longitude": -107.13257438477758,
    "title": "82637473-d252-43d8-8595-5cac4b34a86e"
  },
  {
    "latitude": 32.62965845545377,
    "longitude": -116.46947456647032,
    "title": "8c6b9c05-2997-41d7-8884-337d4755b3a0"
  },
  {
    "latitude": 39.57473165876655,
    "longitude": -104.88290260463522,
    "title": "d6cf3686-b756-4923-8a1c-272574c37804"
  },
  {
    "latitude": 37.6044444,
    "longitude": -108.6033333,
    "title": "b05fac29-36a5-43bb-b61d-34ea1ea742b8"
  },
  {
    "latitude": 30.6727778,
    "longitude": -93.4386111,
    "title": "27b580d7-81d8-4626-930a-adfb06fea699"
  },
  {
    "latitude": 35.6024913256048,
    "longitude": -97.5376391166563,
    "title": "af6de426-d6e1-4863-82d8-61b7edc21275"
  },